{
  "siteId": "2026-apollo-bogota",
  "exportedAt": 1781993059,
  "portals": [
    {
      "title": "La Vitrina",
      "lat": 4.672025,
      "lng": -74.048977,
      "ornamentId": "ap1"
    },
    {
      "title": "Placa Parque John Vélez",
      "lat": 4.673099,
      "lng": -74.058925,
      "ornamentId": "ap1"
    },
    {
      "title": "Escultura Quantum",
      "lat": 4.676165,
      "lng": -74.05662,
      "ornamentId": "ap1"
    },
    {
      "title": "Ruta de la Vida",
      "lat": 4.674235,
      "lng": -74.057336,
      "ornamentId": "ap1"
    },
    {
      "title": "Parque infantil Virrey",
      "lat": 4.674716,
      "lng": -74.057019,
      "ornamentId": "ap1"
    },
    {
      "title": "Fuentes De Agua",
      "lat": 4.676064,
      "lng": -74.056452,
      "ornamentId": "ap1"
    },
    {
      "title": "Escultura Publicis Group",
      "lat": 4.676158,
      "lng": -74.056245,
      "ornamentId": "ap1"
    },
    {
      "title": "Juegos Infantiles",
      "lat": 4.6772,
      "lng": -74.05552,
      "ornamentId": "ap1"
    },
    {
      "title": "Universidad Sergio Arboleda",
      "lat": 4.66435,
      "lng": -74.05648,
      "ornamentId": "ap1"
    },
    {
      "title": "Mural de estudios artisticos",
      "lat": 4.657638,
      "lng": -74.058782,
      "ornamentId": "ap1"
    },
    {
      "title": "La Television Te Ciega",
      "lat": 4.675216,
      "lng": -74.054084,
      "ornamentId": "ap1"
    },
    {
      "title": "Tubos amarillos",
      "lat": 4.675074,
      "lng": -74.05448,
      "ornamentId": "ap1"
    },
    {
      "title": "La Guardia VIP",
      "lat": 4.66716,
      "lng": -74.055054,
      "ornamentId": "ap1"
    },
    {
      "title": "14 Inkas",
      "lat": 4.668154,
      "lng": -74.052705,
      "ornamentId": "ap1"
    },
    {
      "title": "Street Art Bicicleto",
      "lat": 4.66678,
      "lng": -74.055053,
      "ornamentId": "ap1"
    },
    {
      "title": "Parque Público Espartillal",
      "lat": 4.666388,
      "lng": -74.054722,
      "ornamentId": "ap1"
    },
    {
      "title": "La Bicicleta",
      "lat": 4.665458,
      "lng": -74.055731,
      "ornamentId": "ap1"
    },
    {
      "title": "Escudo De Bogotá Parque El Nogal",
      "lat": 4.664988,
      "lng": -74.053296,
      "ornamentId": "ap1"
    },
    {
      "title": "Fish And Love",
      "lat": 4.664428,
      "lng": -74.053718,
      "ornamentId": "ap1"
    },
    {
      "title": "Perversa Graffiti",
      "lat": 4.664232,
      "lng": -74.054045,
      "ornamentId": "ap1"
    },
    {
      "title": "El Malo En La Ventana",
      "lat": 4.671989,
      "lng": -74.05359,
      "ornamentId": "ap1"
    },
    {
      "title": "Arta",
      "lat": 4.674748,
      "lng": -74.054834,
      "ornamentId": "ap1"
    },
    {
      "title": "Parque Urbanización Chicó",
      "lat": 4.677505,
      "lng": -74.056078,
      "ornamentId": "ap1"
    },
    {
      "title": "Juegos Del Parque",
      "lat": 4.673379,
      "lng": -74.055324,
      "ornamentId": "ap1"
    },
    {
      "title": "Escudo Embajada de Belgica",
      "lat": 4.673549,
      "lng": -74.048382,
      "ornamentId": "ap1"
    },
    {
      "title": "Ecos de la Quebrada",
      "lat": 4.669284,
      "lng": -74.046524,
      "ornamentId": "ap1"
    },
    {
      "title": "Arbol de Mariposa",
      "lat": 4.670361,
      "lng": -74.047738,
      "ornamentId": "ap1"
    },
    {
      "title": "Gemelas",
      "lat": 4.673172,
      "lng": -74.052095,
      "ornamentId": "ap1"
    },
    {
      "title": "Fuentes en Granito",
      "lat": 4.670672,
      "lng": -74.048369,
      "ornamentId": "ap1"
    },
    {
      "title": "Academia Colombiana De Jurisprudencia",
      "lat": 4.666159,
      "lng": -74.050087,
      "ornamentId": "ap1"
    },
    {
      "title": "Sendero Ambiental El Gran Chicó",
      "lat": 4.669919,
      "lng": -74.046992,
      "ornamentId": "ap1"
    },
    {
      "title": "Totem De Comunicacion",
      "lat": 4.67151,
      "lng": -74.051836,
      "ornamentId": "ap1"
    },
    {
      "title": "Parroquia Immaculada Concepcion",
      "lat": 4.671433,
      "lng": -74.049496,
      "ornamentId": "ap1"
    },
    {
      "title": "Estructura Metalica CMS+CMP",
      "lat": 4.676613,
      "lng": -74.05744,
      "ornamentId": "ap1"
    },
    {
      "title": "Operación Sonrisa",
      "lat": 4.676748,
      "lng": -74.057965,
      "ornamentId": "ap1"
    },
    {
      "title": "Corredor Ecológico El Virrey",
      "lat": 4.674872,
      "lng": -74.058337,
      "ornamentId": "ap1"
    },
    {
      "title": "Lady Gangster Graffiti",
      "lat": 4.675524,
      "lng": -74.053349,
      "ornamentId": "ap1"
    },
    {
      "title": "Juega Siempre Graffitti",
      "lat": 4.675016,
      "lng": -74.052917,
      "ornamentId": "ap1"
    },
    {
      "title": "Piazetta",
      "lat": 4.674983,
      "lng": -74.051101,
      "ornamentId": "ap1"
    },
    {
      "title": "Space Invaders",
      "lat": 4.675483,
      "lng": -74.053168,
      "ornamentId": "ap1"
    },
    {
      "title": "Fuente Alameda",
      "lat": 4.675103,
      "lng": -74.051668,
      "ornamentId": "ap1"
    },
    {
      "title": "Máquinas De Ejecicio",
      "lat": 4.675846,
      "lng": -74.053328,
      "ornamentId": "ap1"
    },
    {
      "title": "Mural Mas Rojo",
      "lat": 4.674996,
      "lng": -74.053379,
      "ornamentId": "ap1"
    },
    {
      "title": "Escultura Metalica",
      "lat": 4.675238,
      "lng": -74.055886,
      "ornamentId": "ap1"
    },
    {
      "title": "Asociación De Egresados De La Universidad De Los Andes",
      "lat": 4.676171,
      "lng": -74.053412,
      "ornamentId": "ap1"
    },
    {
      "title": "Sherlock Fox",
      "lat": 4.675247,
      "lng": -74.053547,
      "ornamentId": "ap1"
    },
    {
      "title": "Parásitos Graffitti",
      "lat": 4.675093,
      "lng": -74.053644,
      "ornamentId": "ap1"
    },
    {
      "title": "Estructuras Uniandinos",
      "lat": 4.675665,
      "lng": -74.053527,
      "ornamentId": "ap1"
    },
    {
      "title": "Virgen Escondida",
      "lat": 4.670261,
      "lng": -74.047404,
      "ornamentId": "ap1"
    },
    {
      "title": "Emblema ESING",
      "lat": 4.670915,
      "lng": -74.047515,
      "ornamentId": "ap1"
    },
    {
      "title": "Marcador Calle 87 Con 9 - 1966",
      "lat": 4.668697,
      "lng": -74.047989,
      "ornamentId": "ap1"
    },
    {
      "title": "Parque Juegos Infantiles",
      "lat": 4.669678,
      "lng": -74.047073,
      "ornamentId": "ap1"
    },
    {
      "title": "Estrctura Abstracta Amarilla",
      "lat": 4.672895,
      "lng": -74.047305,
      "ornamentId": "ap1"
    },
    {
      "title": "Fuente De Torre Escalar",
      "lat": 4.66366,
      "lng": -74.051944,
      "ornamentId": "ap1"
    },
    {
      "title": "Tierra",
      "lat": 4.664032,
      "lng": -74.051425,
      "ornamentId": "ap1"
    },
    {
      "title": "Las Tres Piedras del Galeon",
      "lat": 4.665194,
      "lng": -74.052245,
      "ornamentId": "ap1"
    },
    {
      "title": "Club Colombia",
      "lat": 4.66507,
      "lng": -74.05074,
      "ornamentId": "ap1"
    },
    {
      "title": "Monsieur waffle",
      "lat": 4.667518,
      "lng": -74.051555,
      "ornamentId": "ap1"
    },
    {
      "title": "No Mas Espionaje Masivo",
      "lat": 4.668586,
      "lng": -74.052994,
      "ornamentId": "ap1"
    },
    {
      "title": "Muro Decorativo",
      "lat": 4.66943,
      "lng": -74.047759,
      "ornamentId": "ap1"
    },
    {
      "title": "Embajada De Los Paises Bajos",
      "lat": 4.668998,
      "lng": -74.048589,
      "ornamentId": "ap1"
    },
    {
      "title": "Zona de Juegos",
      "lat": 4.672146,
      "lng": -74.056224,
      "ornamentId": "ap1"
    },
    {
      "title": "Colectivo Galerias de Arte",
      "lat": 4.672085,
      "lng": -74.054951,
      "ornamentId": "ap1"
    },
    {
      "title": "Energía en Movimiento",
      "lat": 4.673107,
      "lng": -74.053964,
      "ornamentId": "ap1"
    },
    {
      "title": "Mercado de las Flores",
      "lat": 4.672747,
      "lng": -74.054135,
      "ornamentId": "ap1"
    },
    {
      "title": "Gato Negro",
      "lat": 4.673096,
      "lng": -74.05589,
      "ornamentId": "ap1"
    },
    {
      "title": "Punto de lectura",
      "lat": 4.672709,
      "lng": -74.054458,
      "ornamentId": "ap1"
    },
    {
      "title": "Parque del Virrey",
      "lat": 4.672884,
      "lng": -74.053786,
      "ornamentId": "ap1"
    },
    {
      "title": "Parque El Virrey Ecológico",
      "lat": 4.673057,
      "lng": -74.054176,
      "ornamentId": "ap1"
    },
    {
      "title": "Maquinas De Ejercicio Virrey",
      "lat": 4.673566,
      "lng": -74.055859,
      "ornamentId": "ap1"
    },
    {
      "title": "Mural La Puerta De Tad",
      "lat": 4.67232,
      "lng": -74.054021,
      "ornamentId": "ap1"
    },
    {
      "title": "Parque Antiguo Country 2",
      "lat": 4.671974,
      "lng": -74.055909,
      "ornamentId": "ap1"
    },
    {
      "title": "Parque El Country",
      "lat": 4.671611,
      "lng": -74.054602,
      "ornamentId": "ap1"
    },
    {
      "title": "Placa S.A.C.M",
      "lat": 4.671809,
      "lng": -74.054216,
      "ornamentId": "ap1"
    },
    {
      "title": "Arbol de bienestar",
      "lat": 4.673073,
      "lng": -74.054913,
      "ornamentId": "ap1"
    },
    {
      "title": "Virrey Cross",
      "lat": 4.672518,
      "lng": -74.054748,
      "ornamentId": "ap1"
    },
    {
      "title": "Dawg",
      "lat": 4.672622,
      "lng": -74.053561,
      "ornamentId": "ap1"
    },
    {
      "title": "Pilares decorativos",
      "lat": 4.672328,
      "lng": -74.056164,
      "ornamentId": "ap1"
    },
    {
      "title": "Base financiera",
      "lat": 4.671132,
      "lng": -74.057121,
      "ornamentId": "ap1"
    },
    {
      "title": "Fuente Del Retiro",
      "lat": 4.666416,
      "lng": -74.054368,
      "ornamentId": "ap1"
    },
    {
      "title": "Mural Firefox",
      "lat": 4.668181,
      "lng": -74.056064,
      "ornamentId": "ap1"
    },
    {
      "title": "Árbol De Metal - Frutos Del Corazón",
      "lat": 4.667695,
      "lng": -74.053705,
      "ornamentId": "ap1"
    },
    {
      "title": "Micky Mouse at Art Gallery",
      "lat": 4.667752,
      "lng": -74.054502,
      "ornamentId": "ap1"
    },
    {
      "title": "80's Girl Mural",
      "lat": 4.668136,
      "lng": -74.055518,
      "ornamentId": "ap1"
    },
    {
      "title": "Casa Wiedemann",
      "lat": 4.66756,
      "lng": -74.05429,
      "ornamentId": "ap1"
    },
    {
      "title": "Leones De Piedra Encadenados",
      "lat": 4.668442,
      "lng": -74.054017,
      "ornamentId": "ap1"
    },
    {
      "title": "Little Indian Restaurant",
      "lat": 4.668331,
      "lng": -74.053765,
      "ornamentId": "ap1"
    },
    {
      "title": "Mural Los Animales Importan",
      "lat": 4.6674,
      "lng": -74.055697,
      "ornamentId": "ap1"
    },
    {
      "title": "Crown Casino",
      "lat": 4.667903,
      "lng": -74.055111,
      "ornamentId": "ap1"
    },
    {
      "title": "Corazón Mecánico Andrés D.C.",
      "lat": 4.6667,
      "lng": -74.054507,
      "ornamentId": "ap1"
    },
    {
      "title": "Bateria Al Aire - Ácido Bar",
      "lat": 4.667918,
      "lng": -74.056184,
      "ornamentId": "ap1"
    },
    {
      "title": "Flowers",
      "lat": 4.668367,
      "lng": -74.055393,
      "ornamentId": "ap1"
    },
    {
      "title": "Galeria De Arte Internacional",
      "lat": 4.668002,
      "lng": -74.054403,
      "ornamentId": "ap1"
    },
    {
      "title": "Maniquies De Papel",
      "lat": 4.666449,
      "lng": -74.053848,
      "ornamentId": "ap1"
    },
    {
      "title": "Estructura Metalica Redonda Zona T",
      "lat": 4.667349,
      "lng": -74.053786,
      "ornamentId": "ap1"
    },
    {
      "title": "Escultura Mosaico Abstracto",
      "lat": 4.667886,
      "lng": -74.053801,
      "ornamentId": "ap1"
    },
    {
      "title": "Rabbits ETB",
      "lat": 4.666748,
      "lng": -74.053902,
      "ornamentId": "ap1"
    },
    {
      "title": "Virgen Del Retiro",
      "lat": 4.666613,
      "lng": -74.054133,
      "ornamentId": "ap1"
    },
    {
      "title": "Cletta Grips",
      "lat": 4.663867,
      "lng": -74.057148,
      "ornamentId": "ap1"
    },
    {
      "title": "Renacer",
      "lat": 4.670189,
      "lng": -74.05511,
      "ornamentId": "ap1"
    },
    {
      "title": "Hot dog Space",
      "lat": 4.664263,
      "lng": -74.056686,
      "ornamentId": "ap1"
    },
    {
      "title": "Juegos Infantiles - Parque El Virrey",
      "lat": 4.671737,
      "lng": -74.050457,
      "ornamentId": "ap1"
    },
    {
      "title": "Centro Cultural Mexicano",
      "lat": 4.670745,
      "lng": -74.053325,
      "ornamentId": "ap1"
    },
    {
      "title": "Pescado Crepes and Waffles",
      "lat": 4.667819,
      "lng": -74.053428,
      "ornamentId": "ap1"
    },
    {
      "title": "Cubo De Cubos",
      "lat": 4.666068,
      "lng": -74.051633,
      "ornamentId": "ap1"
    },
    {
      "title": "Mural De Una Bicicleta﻿",
      "lat": 4.665102,
      "lng": -74.05518,
      "ornamentId": "ap1"
    },
    {
      "title": "Parque León De Greiff",
      "lat": 4.669034,
      "lng": -74.053894,
      "ornamentId": "ap1"
    },
    {
      "title": "Fuente Centro Comercial Andino",
      "lat": 4.666392,
      "lng": -74.05308,
      "ornamentId": "ap1"
    },
    {
      "title": "Edificio Palco",
      "lat": 4.671988,
      "lng": -74.05249,
      "ornamentId": "ap1"
    },
    {
      "title": "Hotel B3 Virrey",
      "lat": 4.673598,
      "lng": -74.053498,
      "ornamentId": "ap1"
    },
    {
      "title": "Miguel de Cervantes",
      "lat": 4.665555,
      "lng": -74.050833,
      "ornamentId": "ap1"
    },
    {
      "title": "c.c. andino puerta 2",
      "lat": 4.667561,
      "lng": -74.053023,
      "ornamentId": "ap1"
    },
    {
      "title": "Estatuas Hombres",
      "lat": 4.666607,
      "lng": -74.052976,
      "ornamentId": "ap1"
    },
    {
      "title": "Círculos En El Aire",
      "lat": 4.670193,
      "lng": -74.054018,
      "ornamentId": "ap1"
    },
    {
      "title": "Tintín y el Tango",
      "lat": 4.674059,
      "lng": -74.053495,
      "ornamentId": "ap1"
    },
    {
      "title": "El Chef",
      "lat": 4.668122,
      "lng": -74.052221,
      "ornamentId": "ap1"
    },
    {
      "title": "Mariposa Monarca",
      "lat": 4.671784,
      "lng": -74.051543,
      "ornamentId": "ap1"
    },
    {
      "title": "Mural Sacacorchos",
      "lat": 4.667196,
      "lng": -74.050176,
      "ornamentId": "ap1"
    },
    {
      "title": "Paseo Del Lago",
      "lat": 4.664384,
      "lng": -74.057454,
      "ornamentId": "ap1"
    },
    {
      "title": "Letrero conector Ecosistémico",
      "lat": 4.670109,
      "lng": -74.049701,
      "ornamentId": "ap1"
    },
    {
      "title": "Monumento Álvaro Gomez Hurtado (1919-1995)",
      "lat": 4.669891,
      "lng": -74.05028,
      "ornamentId": "ap1"
    },
    {
      "title": "Green Man",
      "lat": 4.670639,
      "lng": -74.054008,
      "ornamentId": "ap1"
    },
    {
      "title": "Zoonorama studio",
      "lat": 4.669005,
      "lng": -74.05458,
      "ornamentId": "ap1"
    },
    {
      "title": "Disco Azteca",
      "lat": 4.667889,
      "lng": -74.05313,
      "ornamentId": "ap1"
    },
    {
      "title": "La Spaghettata",
      "lat": 4.671942,
      "lng": -74.058302,
      "ornamentId": "ap1"
    },
    {
      "title": "Paños Atlas",
      "lat": 4.667195,
      "lng": -74.052765,
      "ornamentId": "ap1"
    },
    {
      "title": "Fuente Jardín Parque El Nogal",
      "lat": 4.664466,
      "lng": -74.053366,
      "ornamentId": "ap1"
    },
    {
      "title": "Estatua",
      "lat": 4.670498,
      "lng": -74.049962,
      "ornamentId": "ap1"
    },
    {
      "title": "Arigato, Restaurante Japonés",
      "lat": 4.664529,
      "lng": -74.05413,
      "ornamentId": "ap1"
    },
    {
      "title": "Rana Bogotana",
      "lat": 4.671694,
      "lng": -74.051234,
      "ornamentId": "ap1"
    },
    {
      "title": "Escudo Cartier",
      "lat": 4.667413,
      "lng": -74.052523,
      "ornamentId": "ap1"
    },
    {
      "title": "Marcador De Calles 1966",
      "lat": 4.669445,
      "lng": -74.048938,
      "ornamentId": "ap1"
    },
    {
      "title": "NOMAC",
      "lat": 4.670336,
      "lng": -74.053409,
      "ornamentId": "ap1"
    },
    {
      "title": "Graffiti Pizzarra",
      "lat": 4.669584,
      "lng": -74.054685,
      "ornamentId": "ap1"
    },
    {
      "title": "Parque Country",
      "lat": 4.672785,
      "lng": -74.057799,
      "ornamentId": "ap1"
    },
    {
      "title": "Parque Publico Nogal",
      "lat": 4.664605,
      "lng": -74.053043,
      "ornamentId": "ap1"
    },
    {
      "title": "Casa De Buceo",
      "lat": 4.663717,
      "lng": -74.057687,
      "ornamentId": "ap1"
    },
    {
      "title": "Artesanias De Colombia",
      "lat": 4.670624,
      "lng": -74.053562,
      "ornamentId": "ap1"
    },
    {
      "title": "Escudo Joyeria Bauer 1893",
      "lat": 4.666596,
      "lng": -74.052103,
      "ornamentId": "ap1"
    },
    {
      "title": "Caballo Gaudiano",
      "lat": 4.666888,
      "lng": -74.053125,
      "ornamentId": "ap1"
    },
    {
      "title": "Bird's",
      "lat": 4.669245,
      "lng": -74.055334,
      "ornamentId": "ap1"
    },
    {
      "title": "Niño en Hombros",
      "lat": 4.669233,
      "lng": -74.050451,
      "ornamentId": "ap1"
    },
    {
      "title": "Vives En Mi",
      "lat": 4.669633,
      "lng": -74.049996,
      "ornamentId": "ap1"
    },
    {
      "title": "Reloj Atlantis",
      "lat": 4.666227,
      "lng": -74.055297,
      "ornamentId": "ap1"
    },
    {
      "title": "Escultura Metálica",
      "lat": 4.665329,
      "lng": -74.052521,
      "ornamentId": "ap1"
    },
    {
      "title": "Juan Montalvo",
      "lat": 4.664257,
      "lng": -74.05306,
      "ornamentId": "ap1"
    },
    {
      "title": "Llave Gigante De Andino",
      "lat": 4.666678,
      "lng": -74.053296,
      "ornamentId": "ap1"
    },
    {
      "title": "Andres Cow",
      "lat": 4.666161,
      "lng": -74.054587,
      "ornamentId": "ap1"
    },
    {
      "title": "Fuente Sin Agua Andino",
      "lat": 4.66597,
      "lng": -74.053023,
      "ornamentId": "ap1"
    },
    {
      "title": "La Virgen Del Cai",
      "lat": 4.670313,
      "lng": -74.049988,
      "ornamentId": "ap1"
    },
    {
      "title": "Parque Ecologico El Virrey",
      "lat": 4.674028,
      "lng": -74.056849,
      "ornamentId": "ap1"
    },
    {
      "title": "Estatua Femenina",
      "lat": 4.669143,
      "lng": -74.050452,
      "ornamentId": "ap1"
    },
    {
      "title": "Concha De Piedra",
      "lat": 4.664747,
      "lng": -74.053411,
      "ornamentId": "ap1"
    },
    {
      "title": "Libertad",
      "lat": 4.669422,
      "lng": -74.054036,
      "ornamentId": "ap1"
    },
    {
      "title": "Escultura Calle 90",
      "lat": 4.674259,
      "lng": -74.053084,
      "ornamentId": "ap1"
    },
    {
      "title": "Cascada Paseo Virrey",
      "lat": 4.674508,
      "lng": -74.054182,
      "ornamentId": "ap1"
    },
    {
      "title": "Juan Valdez Calle 85",
      "lat": 4.670231,
      "lng": -74.054917,
      "ornamentId": "ap1"
    },
    {
      "title": "Los Caballos",
      "lat": 4.66473,
      "lng": -74.051144,
      "ornamentId": "ap1"
    },
    {
      "title": "School of rock",
      "lat": 4.665581,
      "lng": -74.052618,
      "ornamentId": "ap1"
    },
    {
      "title": "gimnasio para adultos",
      "lat": 4.665849,
      "lng": -74.051003,
      "ornamentId": "ap1"
    },
    {
      "title": "La Flor Amarilla",
      "lat": 4.66699,
      "lng": -74.052616,
      "ornamentId": "ap1"
    },
    {
      "title": "Lievano",
      "lat": 4.666785,
      "lng": -74.052747,
      "ornamentId": "ap1"
    },
    {
      "title": "Virgen Del Carmen",
      "lat": 4.670149,
      "lng": -74.050116,
      "ornamentId": "ap1"
    },
    {
      "title": "Copeton Bogota l",
      "lat": 4.671965,
      "lng": -74.051789,
      "ornamentId": "ap1"
    },
    {
      "title": "Mirada Sin Sol",
      "lat": 4.665427,
      "lng": -74.052747,
      "ornamentId": "ap1"
    },
    {
      "title": "Bogota Beer Company",
      "lat": 4.667544,
      "lng": -74.053308,
      "ornamentId": "ap1"
    },
    {
      "title": "Inbox Oficinas",
      "lat": 4.664884,
      "lng": -74.055949,
      "ornamentId": "ap1"
    },
    {
      "title": "Juegos Parque La Cabrera",
      "lat": 4.669375,
      "lng": -74.052222,
      "ornamentId": "ap1"
    },
    {
      "title": "Busto Miguel Grau Semanario",
      "lat": 4.666038,
      "lng": -74.051266,
      "ornamentId": "ap1"
    },
    {
      "title": "Punto de Informacion Parque Virrey",
      "lat": 4.671058,
      "lng": -74.049452,
      "ornamentId": "ap1"
    },
    {
      "title": "Murales Del Robot Androide",
      "lat": 4.674417,
      "lng": -74.058303,
      "ornamentId": "ap1"
    },
    {
      "title": "Vitrina De Arte Del Retiro",
      "lat": 4.665425,
      "lng": -74.053716,
      "ornamentId": "ap1"
    },
    {
      "title": "La gran batidora",
      "lat": 4.665912,
      "lng": -74.051481,
      "ornamentId": "ap1"
    },
    {
      "title": "Mujer Azul",
      "lat": 4.670751,
      "lng": -74.056271,
      "ornamentId": "ap1"
    },
    {
      "title": "La Mano",
      "lat": 4.666023,
      "lng": -74.054774,
      "ornamentId": "ap1"
    },
    {
      "title": "Escultura Amarilla",
      "lat": 4.670618,
      "lng": -74.05014,
      "ornamentId": "ap1"
    },
    {
      "title": "Hotel Sofitel",
      "lat": 4.66991,
      "lng": -74.053313,
      "ornamentId": "ap1"
    },
    {
      "title": "Arbolito de Metal",
      "lat": 4.666664,
      "lng": -74.053497,
      "ornamentId": "ap1"
    },
    {
      "title": "Placa Joyeria Bauer",
      "lat": 4.666208,
      "lng": -74.053026,
      "ornamentId": "ap1"
    },
    {
      "title": "Afrovida",
      "lat": 4.665409,
      "lng": -74.053824,
      "ornamentId": "ap1"
    },
    {
      "title": "Centro Venezolano De Cultura",
      "lat": 4.67098,
      "lng": -74.049821,
      "ornamentId": "ap1"
    },
    {
      "title": "Canal el Virrey",
      "lat": 4.673832,
      "lng": -74.055824,
      "ornamentId": "ap1"
    },
    {
      "title": "Pozo Pequeño",
      "lat": 4.673473,
      "lng": -74.050854,
      "ornamentId": "ap1"
    },
    {
      "title": "Zarigüeya Sabanera",
      "lat": 4.671526,
      "lng": -74.050934,
      "ornamentId": "ap1"
    },
    {
      "title": "Mesas De Ajedrez",
      "lat": 4.670037,
      "lng": -74.050773,
      "ornamentId": "ap1"
    },
    {
      "title": "Mastin Plateado Kare",
      "lat": 4.664922,
      "lng": -74.053595,
      "ornamentId": "ap1"
    },
    {
      "title": "Orbe Incrustado",
      "lat": 4.664123,
      "lng": -74.053389,
      "ornamentId": "ap1"
    },
    {
      "title": "Leon de Greiff's Park",
      "lat": 4.669007,
      "lng": -74.054115,
      "ornamentId": "ap1"
    },
    {
      "title": "Barco Pirata del Capitan Rojo",
      "lat": 4.670204,
      "lng": -74.050526,
      "ornamentId": "ap1"
    },
    {
      "title": "Embajada de Guatemala",
      "lat": 4.67064,
      "lng": -74.053149,
      "ornamentId": "ap1"
    },
    {
      "title": "Placa Luis Andres Colmenares",
      "lat": 4.672874,
      "lng": -74.053429,
      "ornamentId": "ap1"
    },
    {
      "title": "Chuck Match",
      "lat": 4.668489,
      "lng": -74.052645,
      "ornamentId": "ap1"
    },
    {
      "title": "Sendero Ambiental el Gran Chicó",
      "lat": 4.672056,
      "lng": -74.051611,
      "ornamentId": "ap1"
    },
    {
      "title": "Camino Rugoso",
      "lat": 4.674802,
      "lng": -74.050738,
      "ornamentId": "ap1"
    },
    {
      "title": "Parque De Ejercicios",
      "lat": 4.67388,
      "lng": -74.055529,
      "ornamentId": "ap1"
    },
    {
      "title": "Estrellas De Atlantis",
      "lat": 4.665842,
      "lng": -74.055988,
      "ornamentId": "ap1"
    },
    {
      "title": "Vitral Techo Atlantis",
      "lat": 4.666135,
      "lng": -74.055585,
      "ornamentId": "ap1"
    },
    {
      "title": "Parque familiar Antiguo Country Club",
      "lat": 4.672627,
      "lng": -74.057428,
      "ornamentId": "ap1"
    },
    {
      "title": "La familia soñadora",
      "lat": 4.671549,
      "lng": -74.053107,
      "ornamentId": "ap1"
    },
    {
      "title": "Parque Vecinal La Cabrera",
      "lat": 4.669312,
      "lng": -74.051864,
      "ornamentId": "ap1"
    },
    {
      "title": "Parque Público Urb. La Cabrera",
      "lat": 4.670283,
      "lng": -74.050345,
      "ornamentId": "ap1"
    },
    {
      "title": "Presencia Fugaz",
      "lat": 4.663867,
      "lng": -74.053912,
      "ornamentId": "ap1"
    },
    {
      "title": "Park Office 86 Statue",
      "lat": 4.671087,
      "lng": -74.053241,
      "ornamentId": "ap1"
    },
    {
      "title": "Albameda",
      "lat": 4.665867,
      "lng": -74.053384,
      "ornamentId": "ap1"
    },
    {
      "title": "Master Cow",
      "lat": 4.665851,
      "lng": -74.054437,
      "ornamentId": "ap1"
    },
    {
      "title": "Mural gato tierno",
      "lat": 4.667151,
      "lng": -74.051799,
      "ornamentId": "ap1"
    },
    {
      "title": "United Nations' Art",
      "lat": 4.666202,
      "lng": -74.051355,
      "ornamentId": "ap1"
    },
    {
      "title": "El Nombre De La Rosa",
      "lat": 4.666097,
      "lng": -74.056512,
      "ornamentId": "ap1"
    },
    {
      "title": "Fuentena del Galeon V",
      "lat": 4.665277,
      "lng": -74.051944,
      "ornamentId": "ap1"
    },
    {
      "title": "Fuente Entrada 2 Andino",
      "lat": 4.66707,
      "lng": -74.053388,
      "ornamentId": "ap1"
    },
    {
      "title": "Comunicación Del Color",
      "lat": 4.673005,
      "lng": -74.050128,
      "ornamentId": "ap1"
    },
    {
      "title": "La Cara Triste De Mi Negro",
      "lat": 4.674772,
      "lng": -74.053054,
      "ornamentId": "ap1"
    },
    {
      "title": "Parque Cabrera 5",
      "lat": 4.665144,
      "lng": -74.050426,
      "ornamentId": "ap1"
    },
    {
      "title": "Embajada De La Republica Del Ecuador",
      "lat": 4.672628,
      "lng": -74.051665,
      "ornamentId": "ap1"
    },
    {
      "title": "Monolito Católico",
      "lat": 4.671241,
      "lng": -74.049653,
      "ornamentId": "ap1"
    },
    {
      "title": "Fuente Ocho2",
      "lat": 4.664814,
      "lng": -74.051694,
      "ornamentId": "ap1"
    },
    {
      "title": "Bandera de Botellas",
      "lat": 4.666399,
      "lng": -74.05281,
      "ornamentId": "ap1"
    },
    {
      "title": "Plaza Virrey",
      "lat": 4.671951,
      "lng": -74.052904,
      "ornamentId": "ap1"
    },
    {
      "title": "Monstruo Grafiti",
      "lat": 4.666364,
      "lng": -74.056962,
      "ornamentId": "ap1"
    },
    {
      "title": "Pragma",
      "lat": 4.67007,
      "lng": -74.054127,
      "ornamentId": "ap1"
    },
    {
      "title": "Lápiz Volador",
      "lat": 4.666056,
      "lng": -74.05397,
      "ornamentId": "ap1"
    },
    {
      "title": "Mapa Parque Lineal el Virrey",
      "lat": 4.67085,
      "lng": -74.049255,
      "ornamentId": "ap1"
    },
    {
      "title": "Estructura - Tijeras Negras",
      "lat": 4.666142,
      "lng": -74.048747,
      "ornamentId": "ap1"
    },
    {
      "title": "Parche",
      "lat": 4.672385,
      "lng": -74.053456,
      "ornamentId": "ap1"
    },
    {
      "title": "Rosa Del Viento",
      "lat": 4.668133,
      "lng": -74.051195,
      "ornamentId": "ap1"
    },
    {
      "title": "Orales Guey",
      "lat": 4.66869,
      "lng": -74.052565,
      "ornamentId": "ap1"
    },
    {
      "title": "Rock Band Burguers",
      "lat": 4.658977,
      "lng": -74.060904,
      "ornamentId": "ap1"
    },
    {
      "title": "Centro Cultural Gabriel Betancourt Mejía",
      "lat": 4.660071,
      "lng": -74.060772,
      "ornamentId": "ap1"
    },
    {
      "title": "Monumento en conmemoracion a Camilo Torres Restrepo",
      "lat": 4.657919,
      "lng": -74.058767,
      "ornamentId": "ap1"
    },
    {
      "title": "DUAL",
      "lat": 4.660351,
      "lng": -74.058931,
      "ornamentId": "ap1"
    },
    {
      "title": "Arcoiris Upn",
      "lat": 4.658301,
      "lng": -74.059043,
      "ornamentId": "ap1"
    },
    {
      "title": "Graffiti Bailarines Libres",
      "lat": 4.658725,
      "lng": -74.060096,
      "ornamentId": "ap1"
    },
    {
      "title": "Flor Guatemalteca",
      "lat": 4.659171,
      "lng": -74.061268,
      "ornamentId": "ap1"
    },
    {
      "title": "Enraizando",
      "lat": 4.658979,
      "lng": -74.059114,
      "ornamentId": "ap1"
    },
    {
      "title": "Fuchsia Bolivariana",
      "lat": 4.657607,
      "lng": -74.059058,
      "ornamentId": "ap1"
    },
    {
      "title": "Ave Azul",
      "lat": 4.657754,
      "lng": -74.059221,
      "ornamentId": "ap1"
    },
    {
      "title": "Ramona",
      "lat": 4.658923,
      "lng": -74.059933,
      "ornamentId": "ap1"
    },
    {
      "title": "Enraizando Territorio",
      "lat": 4.65827,
      "lng": -74.059362,
      "ornamentId": "ap1"
    },
    {
      "title": "Mural Dignidad",
      "lat": 4.658843,
      "lng": -74.058916,
      "ornamentId": "ap1"
    },
    {
      "title": "Universidad Central",
      "lat": 4.662043,
      "lng": -74.059423,
      "ornamentId": "ap1"
    },
    {
      "title": "Mineros Invencibles",
      "lat": 4.660089,
      "lng": -74.058754,
      "ornamentId": "ap1"
    },
    {
      "title": "Arbol De Vidrio",
      "lat": 4.657886,
      "lng": -74.059446,
      "ornamentId": "ap1"
    },
    {
      "title": "Viva El Paro Mural",
      "lat": 4.658456,
      "lng": -74.060142,
      "ornamentId": "ap1"
    },
    {
      "title": "Logo Pedagógica Calle 73",
      "lat": 4.658543,
      "lng": -74.058933,
      "ornamentId": "ap1"
    },
    {
      "title": "Notorious Big",
      "lat": 4.659202,
      "lng": -74.060825,
      "ornamentId": "ap1"
    },
    {
      "title": "El sr. buho",
      "lat": 4.658158,
      "lng": -74.059605,
      "ornamentId": "ap1"
    },
    {
      "title": "Mural conmemora las victimas de las protestas",
      "lat": 4.658813,
      "lng": -74.059207,
      "ornamentId": "ap1"
    },
    {
      "title": "Escudo UPN",
      "lat": 4.657882,
      "lng": -74.059467,
      "ornamentId": "ap1"
    },
    {
      "title": "Torre Secundaria UPN",
      "lat": 4.658516,
      "lng": -74.059348,
      "ornamentId": "ap1"
    },
    {
      "title": "Retratos De Soledad",
      "lat": 4.659028,
      "lng": -74.059412,
      "ornamentId": "ap1"
    },
    {
      "title": "Papicultor Mural",
      "lat": 4.658207,
      "lng": -74.059829,
      "ornamentId": "ap1"
    },
    {
      "title": "Congreso De Los Pueblos",
      "lat": 4.659249,
      "lng": -74.0597,
      "ornamentId": "ap1"
    },
    {
      "title": "Escudo Universidad Sergio Arboleda",
      "lat": 4.660814,
      "lng": -74.059931,
      "ornamentId": "ap1"
    },
    {
      "title": "U Ean",
      "lat": 4.663542,
      "lng": -74.05456,
      "ornamentId": "ap1"
    },
    {
      "title": "Unitec sede A",
      "lat": 4.661883,
      "lng": -74.05742,
      "ornamentId": "ap1"
    },
    {
      "title": "Monasterio De La Visitación De Santa María",
      "lat": 4.659223,
      "lng": -74.057499,
      "ornamentId": "ap1"
    },
    {
      "title": "Mural Carulla",
      "lat": 4.661117,
      "lng": -74.056232,
      "ornamentId": "ap1"
    },
    {
      "title": "Machines Alike",
      "lat": 4.658562,
      "lng": -74.057659,
      "ornamentId": "ap1"
    },
    {
      "title": "Eduardo El Desaparecido",
      "lat": 4.657417,
      "lng": -74.058732,
      "ornamentId": "ap1"
    },
    {
      "title": "Unitec",
      "lat": 4.661837,
      "lng": -74.0576,
      "ornamentId": "ap1"
    },
    {
      "title": "Descomponiendo residuos, tejiendo comunidad",
      "lat": 4.657933,
      "lng": -74.058584,
      "ornamentId": "ap1"
    },
    {
      "title": "Placa Iglesias Maria Inmaculada",
      "lat": 4.657658,
      "lng": -74.058279,
      "ornamentId": "ap1"
    },
    {
      "title": "Fuente Del Zoológico",
      "lat": 4.659625,
      "lng": -74.05684,
      "ornamentId": "ap1"
    },
    {
      "title": "El Angel De La Naturaleza",
      "lat": 4.660753,
      "lng": -74.055283,
      "ornamentId": "ap1"
    },
    {
      "title": "San Francisco De Asis",
      "lat": 4.657309,
      "lng": -74.058451,
      "ornamentId": "ap1"
    },
    {
      "title": "Caballo",
      "lat": 4.659962,
      "lng": -74.054382,
      "ornamentId": "ap1"
    },
    {
      "title": "Bubu Honey",
      "lat": 4.65973,
      "lng": -74.058731,
      "ornamentId": "ap1"
    },
    {
      "title": "Manta Diver",
      "lat": 4.663528,
      "lng": -74.057442,
      "ornamentId": "ap1"
    },
    {
      "title": "Virgen De La U Ean",
      "lat": 4.663375,
      "lng": -74.055448,
      "ornamentId": "ap1"
    },
    {
      "title": "Rapto Alienígena",
      "lat": 4.663141,
      "lng": -74.057013,
      "ornamentId": "ap1"
    },
    {
      "title": "Colibrí Arte al Piso",
      "lat": 4.656187,
      "lng": -74.056977,
      "ornamentId": "ap1"
    },
    {
      "title": "Mural De Manos y Hongo",
      "lat": 4.658095,
      "lng": -74.057955,
      "ornamentId": "ap1"
    },
    {
      "title": "Monumento al Centenario",
      "lat": 4.65798,
      "lng": -74.05597,
      "ornamentId": "ap1"
    },
    {
      "title": "Fuente De La Virgen",
      "lat": 4.658709,
      "lng": -74.055397,
      "ornamentId": "ap1"
    },
    {
      "title": "Placa Conmemorativa",
      "lat": 4.657839,
      "lng": -74.056244,
      "ornamentId": "ap1"
    },
    {
      "title": "Casa Antigua De Dani",
      "lat": 4.657569,
      "lng": -74.056812,
      "ornamentId": "ap1"
    },
    {
      "title": "Santo Tomás",
      "lat": 4.657071,
      "lng": -74.057217,
      "ornamentId": "ap1"
    },
    {
      "title": "La Facultad",
      "lat": 4.658264,
      "lng": -74.056547,
      "ornamentId": "ap1"
    },
    {
      "title": "Escudo Indonesia",
      "lat": 4.660304,
      "lng": -74.056711,
      "ornamentId": "ap1"
    },
    {
      "title": "El pensamiento critico",
      "lat": 4.658439,
      "lng": -74.058448,
      "ornamentId": "ap1"
    },
    {
      "title": "Estatua San Francisco De Asis",
      "lat": 4.657945,
      "lng": -74.057615,
      "ornamentId": "ap1"
    },
    {
      "title": "Biblioteca Hidelbrando Perico Afanador - Universidad EAN",
      "lat": 4.663581,
      "lng": -74.055025,
      "ornamentId": "ap1"
    },
    {
      "title": "Fraile Diego Francisco Ardila",
      "lat": 4.662078,
      "lng": -74.056384,
      "ornamentId": "ap1"
    },
    {
      "title": "En Buenas Manos",
      "lat": 4.660412,
      "lng": -74.054138,
      "ornamentId": "ap1"
    },
    {
      "title": "Escultura De Madera",
      "lat": 4.662226,
      "lng": -74.052658,
      "ornamentId": "ap1"
    },
    {
      "title": "ET - U Pedagógica",
      "lat": 4.657738,
      "lng": -74.057929,
      "ornamentId": "ap1"
    },
    {
      "title": "Cáliz De Fuego",
      "lat": 4.661474,
      "lng": -74.055663,
      "ornamentId": "ap1"
    },
    {
      "title": "Graffiti Campesino",
      "lat": 4.658649,
      "lng": -74.058649,
      "ornamentId": "ap1"
    },
    {
      "title": "Mariposa De Las 3 Estaciones",
      "lat": 4.662029,
      "lng": -74.055678,
      "ornamentId": "ap1"
    },
    {
      "title": "Uniciencia",
      "lat": 4.661658,
      "lng": -74.058037,
      "ornamentId": "ap1"
    },
    {
      "title": "Metal Estructura Dei",
      "lat": 4.663517,
      "lng": -74.056257,
      "ornamentId": "ap1"
    },
    {
      "title": "Arbol Metálico Con Escalera",
      "lat": 4.663082,
      "lng": -74.052315,
      "ornamentId": "ap1"
    },
    {
      "title": "Unitec sede G",
      "lat": 4.661849,
      "lng": -74.057832,
      "ornamentId": "ap1"
    },
    {
      "title": "Mural: Tenemos una vida en frente",
      "lat": 4.658366,
      "lng": -74.058721,
      "ornamentId": "ap1"
    },
    {
      "title": "Orbes De Benito Juárez",
      "lat": 4.662182,
      "lng": -74.056007,
      "ornamentId": "ap1"
    },
    {
      "title": "La Pileta",
      "lat": 4.658805,
      "lng": -74.056395,
      "ornamentId": "ap1"
    },
    {
      "title": "Iglesia Porciúncula",
      "lat": 4.657159,
      "lng": -74.058347,
      "ornamentId": "ap1"
    },
    {
      "title": "Museo de Historia Natural. Casa de la Vida.",
      "lat": 4.658302,
      "lng": -74.058184,
      "ornamentId": "ap1"
    },
    {
      "title": "Fuente BBVA",
      "lat": 4.656509,
      "lng": -74.056852,
      "ornamentId": "ap1"
    },
    {
      "title": "Lámparas Colgantes",
      "lat": 4.660823,
      "lng": -74.054315,
      "ornamentId": "ap1"
    },
    {
      "title": "Jesus De Nazaret Estatua",
      "lat": 4.661064,
      "lng": -74.058409,
      "ornamentId": "ap1"
    },
    {
      "title": "Iglesia De Los Caballeros De La Virgen",
      "lat": 4.660764,
      "lng": -74.058369,
      "ornamentId": "ap1"
    },
    {
      "title": "ideograma",
      "lat": 4.656976,
      "lng": -74.058059,
      "ornamentId": "ap1"
    },
    {
      "title": "Corredores Asociados",
      "lat": 4.661637,
      "lng": -74.053122,
      "ornamentId": "ap1"
    },
    {
      "title": "Monasterio De La Visitación",
      "lat": 4.659569,
      "lng": -74.058127,
      "ornamentId": "ap1"
    },
    {
      "title": "El Angel Enjaulado",
      "lat": 4.66132,
      "lng": -74.055809,
      "ornamentId": "ap1"
    },
    {
      "title": "Tumba Don Agustín",
      "lat": 4.658926,
      "lng": -74.055561,
      "ornamentId": "ap1"
    },
    {
      "title": "Gran China Entrance",
      "lat": 4.662424,
      "lng": -74.05607,
      "ornamentId": "ap1"
    },
    {
      "title": "Metal K",
      "lat": 4.661432,
      "lng": -74.053439,
      "ornamentId": "ap1"
    },
    {
      "title": "Estructura Linear Metálica",
      "lat": 4.662879,
      "lng": -74.052484,
      "ornamentId": "ap1"
    },
    {
      "title": "Juan Valdez Av Chile",
      "lat": 4.65727,
      "lng": -74.057971,
      "ornamentId": "ap1"
    },
    {
      "title": "Árbol De Metal",
      "lat": 4.66213,
      "lng": -74.055563,
      "ornamentId": "ap1"
    },
    {
      "title": "Estatua de Benito Juárez",
      "lat": 4.662241,
      "lng": -74.056222,
      "ornamentId": "ap1"
    },
    {
      "title": "Graffiti Caras Gatos",
      "lat": 4.658005,
      "lng": -74.058155,
      "ornamentId": "ap1"
    },
    {
      "title": "Vitrales Del Politécnico Internacional",
      "lat": 4.65774,
      "lng": -74.057383,
      "ornamentId": "ap1"
    },
    {
      "title": "Caballo de Granahorrar",
      "lat": 4.657194,
      "lng": -74.057731,
      "ornamentId": "ap1"
    }
  ]
}