{"portals":[{"guid":"1d848fd0311737f08df46da0ef75c080.16","title":"Reading Tweety Graffiti","lat":17.40434,"lng":78.489573,"ornamentId":"ap1","observedAt":1771949807375},{"guid":"7fb5c8999f5333fe82dd78e0f0c228b0.16","title":"Government Degree College","lat":17.402408,"lng":78.489734,"ornamentId":"ap1","observedAt":1771949807377},{"guid":"4b507709a3a63fb495bbbf45aeb39c49.16","title":"Christian Brethren Assembly","lat":17.404367,"lng":78.490304,"ornamentId":"ap1","observedAt":1771949807378},{"guid":"ea5e9ba54b07310c8f0d0887c6181fd5.16","title":"Lord shiva mural","lat":17.404661,"lng":78.490695,"ornamentId":"ap1","observedAt":1771949807379},{"guid":"04b78a84c33f38bc8f175df20fe85596.16","title":"Sleeping Tweety Graffiti","lat":17.404073,"lng":78.489441,"ornamentId":"ap1","observedAt":1771949807380},{"guid":"334370652fde3bc7a915b3a328738d92.16","title":"Jerry Graffiti","lat":17.402619,"lng":78.490774,"ornamentId":"ap1","observedAt":1771949807381},{"guid":"b4f9e8e24aee3240a67f90318ed1212b.16","title":"Music Mural","lat":17.403892,"lng":78.489538,"ornamentId":"ap1","observedAt":1771949807382},{"guid":"2b4354f3054a44718ca74445d7273b9b.16","title":"Dr. B R Ambedkar's Bust","lat":17.409449,"lng":78.484161,"ornamentId":"ap1","observedAt":1771949807382},{"guid":"e587ced575b345fe8f8d8a961741e637.16","title":"sai baba","lat":17.408425,"lng":78.482527,"ornamentId":"ap1","observedAt":1771949807382},{"guid":"016267d2e4273272a81aea9f156f7505.16","title":"Public Library","lat":17.405212,"lng":78.488862,"ornamentId":"ap1","observedAt":1771949807384},{"guid":"0df56822448648afbd44276e457e536e.16","title":"octopus Graffiti","lat":17.403403,"lng":78.484504,"ornamentId":"ap1","observedAt":1771949807384},{"guid":"3a4bb2ddb1a248319182bb558350c0f5.16","title":"Masjid E Sleema","lat":17.400357,"lng":78.489792,"ornamentId":"ap1","observedAt":1771949807385},{"guid":"86a9a6dd38ed34878871fa4bdcf54c9d.16","title":"Masjid-e-Subhani","lat":17.405096,"lng":78.482661,"ornamentId":"ap1","observedAt":1771949807386},{"guid":"ed7945f2199142c987b87b75c2b70f4e.16","title":"Tweety Graffiti","lat":17.402414,"lng":78.48608,"ornamentId":"ap1","observedAt":1771949807386},{"guid":"775acaf666584fbb8aa6fd3ef465dc11.16","title":"Painting On The Wall","lat":17.41036,"lng":78.481875,"ornamentId":"ap1","observedAt":1771949807386},{"guid":"dafe156b93c1478b8560717cc87e19e3.16","title":"Bear Graffiti","lat":17.400105,"lng":78.490221,"ornamentId":"ap1","observedAt":1771949807387},{"guid":"7c3a063e79d83e038d83f0e978edfdaa.16","title":"KFC","lat":17.401492,"lng":78.485866,"ornamentId":"ap1","observedAt":1771949807387},{"guid":"4e8e4960f03031acbbcfb4f30013abcc.16","title":"Lord Hanuman Temple","lat":17.409245,"lng":78.485996,"ornamentId":"ap1","observedAt":1771949807387},{"guid":"971a59282cde3f7ba0b1ecb01eebf3a1.16","title":"The Cross Mural","lat":17.405776,"lng":78.487886,"ornamentId":"ap1","observedAt":1771949807387},{"guid":"1e6ae9bbc2083d7585a4c9d54ed93b5d.16","title":"Shri Jain Bhavan","lat":17.401329,"lng":78.488729,"ornamentId":"ap1","observedAt":1771949807388},{"guid":"f6716654032d3515ad0dc63cada12980.16","title":"Shiv Parvati Sculpture","lat":17.407074,"lng":78.48629,"ornamentId":"ap1","observedAt":1771949807388},{"guid":"df857ed3e6f241708d01820c5c1f589e.16","title":"Little Temple","lat":17.403546,"lng":78.482106,"ornamentId":"ap1","observedAt":1771949807390},{"guid":"57bbd7e56e504c36818530a9d13bcb07.16","title":"Mata Shrine","lat":17.410404,"lng":78.486776,"ornamentId":"ap1","observedAt":1771949807390},{"guid":"4be27f7f17ca49c6898104131bd56574.16","title":"JALAGAM VENGALA RAO STATUES","lat":17.403934,"lng":78.482191,"ornamentId":"ap1","observedAt":1771949807392},{"guid":"9993acf57bb74a58a39f86ccc6482479.16","title":"durga mata temple","lat":17.407763,"lng":78.48713,"ornamentId":"ap1","observedAt":1771949807392},{"guid":"9ade7dd6a1114e86a81e36c8d89cd631.16","title":"Temple","lat":17.408361,"lng":78.482906,"ornamentId":"ap1","observedAt":1771949807393},{"guid":"2049266920393a75944ce3da5e143917.16","title":"Ashoknagar Water Tank","lat":17.405786,"lng":78.490822,"ornamentId":"ap1","observedAt":1771949807393},{"guid":"3b8ff4dba979466fa8e44a36a0c3e36a.16","title":"Satyannarayana Swamy Temple","lat":17.408563,"lng":78.48851,"ornamentId":"ap1","observedAt":1771949807393},{"guid":"c0b77d7aa7a2406486ebd30df381c850.16","title":"Religious Structure on Himayatnagar Road","lat":17.404762,"lng":78.481068,"ornamentId":"ap1","observedAt":1771949807394},{"guid":"3cd7eb0c093c3b99a1e7a9d414800072.16","title":"The Thickshake Factory","lat":17.401239,"lng":78.486581,"ornamentId":"ap1","observedAt":1771949807396},{"guid":"c2993e3bcedd382a9d74ba147d8e33f5.16","title":"Little Nagdevta Temple","lat":17.402891,"lng":78.489165,"ornamentId":"ap1","observedAt":1771949807396},{"guid":"3aeeadd9da7b380296005e6dad71b298.16","title":"GHMC playing music mural","lat":17.405614,"lng":78.488411,"ornamentId":"ap1","observedAt":1771949807397},{"guid":"ac1289e604bf3e8299ec935457a361b6.16","title":"Ashoknagar Childrens Park","lat":17.406427,"lng":78.489829,"ornamentId":"ap1","observedAt":1771949807397},{"guid":"02a44cf4e4b43b54b9e2e3495308d403.16","title":"Ganesh Temple Domalguda","lat":17.404684,"lng":78.484438,"ornamentId":"ap1","observedAt":1771949807398},{"guid":"dc3c2d0a466540c6818f50cd38143ee7.16","title":"Masjid E Soghra","lat":17.402099,"lng":78.487378,"ornamentId":"ap1","observedAt":1771949807398},{"guid":"704d0cfa4fe549dab679308a7f1d6de4.16","title":"Little Shiva Temple","lat":17.407922,"lng":78.488457,"ornamentId":"ap1","observedAt":1771949807398},{"guid":"2a5bbe000da5415bbc325a9fc6d96e05.16","title":"Sai Baba Temple","lat":17.402384,"lng":78.487254,"ornamentId":"ap1","observedAt":1771949807399},{"guid":"0e77bdd560a34eb8bdabb2b514576d3f.16","title":"Vijaya Ganapati Temple","lat":17.409834,"lng":78.485571,"ornamentId":"ap1","observedAt":1771949807399},{"guid":"eff63b43353535399d0b360d435512f5.16","title":"Basketball Court","lat":17.410384,"lng":78.482881,"ornamentId":"ap1","observedAt":1771949807399},{"guid":"70a57279d1c9372c88b48e15eb13ea42.16","title":"ST Pauls Degree College","lat":17.402565,"lng":78.487209,"ornamentId":"ap1","observedAt":1771949807399},{"guid":"8164bbf71fdb3f27877370fafa6a0a3c.16","title":"Dr.B.R.Ambedkar Statue","lat":17.400507,"lng":78.487962,"ornamentId":"ap1","observedAt":1771949807400},{"guid":"20dc45561d8531c4b94b474298a4b63b.16","title":"Fish Mural","lat":17.405071,"lng":78.48976,"ornamentId":"ap1","observedAt":1771949807400},{"guid":"5b85865af9d74c54944d7152450af671.16","title":"Working Farmers Mural","lat":17.400209,"lng":78.487724,"ornamentId":"ap1","observedAt":1771949807400},{"guid":"b39293b11c2a310b90f911cafddea81f.16","title":"Swacch Bharat Mural","lat":17.403678,"lng":78.489257,"ornamentId":"ap1","observedAt":1771949807401},{"guid":"9136602fa9f53ece8e9ea2182e0da174.16","title":"The shawarma kid","lat":17.403215,"lng":78.485103,"ornamentId":"ap1","observedAt":1771949807401},{"guid":"ebeb0a2fe98f4d5c810841b72240216b.16","title":"DR.BR AMBEDKAR STATUE","lat":17.408075,"lng":78.481823,"ornamentId":"ap1","observedAt":1771949807401},{"guid":"b3cdd93aa124482eb60de1170df5aa4b.16","title":"Durga Mata Temple","lat":17.410169,"lng":78.486094,"ornamentId":"ap1","observedAt":1771949807402},{"guid":"83486d64d60146ad98ea262b1dc812a5.16","title":"Bust of Sri Nandamuri Taraka Ramarao","lat":17.409119,"lng":78.489779,"ornamentId":"ap1","observedAt":1771949807402},{"guid":"8dd6009d03523a929e3616d583cb4c77.16","title":"Indian Traditional Women Mural","lat":17.406418,"lng":78.488406,"ornamentId":"ap1","observedAt":1771949807402},{"guid":"258bdce8dcf333f981841d8994ed97dc.16","title":"Ciddenki Nalla Pochamma Temple","lat":17.408495,"lng":78.486589,"ornamentId":"ap1","observedAt":1771949807403},{"guid":"8513a69a6eb443299d9c2b8199273d6d.16","title":"Gandhi Statue","lat":17.403845,"lng":78.485993,"ornamentId":"ap1","observedAt":1771949807403},{"guid":"89a9554c42394f6fa381b3218c974a4e.16","title":"Uppalamma Devi Temple","lat":17.405948,"lng":78.485098,"ornamentId":"ap1","observedAt":1771949807404},{"guid":"e6a3aedf1494492a9f5efe11e06bfdec.16","title":"Ganesha Mural","lat":17.40428,"lng":78.485841,"ornamentId":"ap1","observedAt":1771949807404},{"guid":"4eaecae473063151a53778afdb00006a.16","title":"Octopus Mural","lat":17.405022,"lng":78.489905,"ornamentId":"ap1","observedAt":1771949807405},{"guid":"7b14db10e7674b6b9fa8e7c98035462a.16","title":"Birds Graffiti","lat":17.407875,"lng":78.485107,"ornamentId":"ap1","observedAt":1771949807405},{"guid":"d439b9c5784538fab1b1345ca367b344.16","title":"Paradise Restaurant","lat":17.40092,"lng":78.485667,"ornamentId":"ap1","observedAt":1771949807406},{"guid":"b12e376eca834f1c98b76b95b786f69f.16","title":"Gagan Mahal Temple","lat":17.406229,"lng":78.481887,"ornamentId":"ap1","observedAt":1771949807407},{"guid":"8125ac3e9de6408986f5f4d0b1c0c5b1.16","title":"Domalguda Park","lat":17.405407,"lng":78.485313,"ornamentId":"ap1","observedAt":1771949807407},{"guid":"a17863ceaac240a2a3ef2b8929a5b8a9.16","title":"Swach Survekshan Graffiti","lat":17.404429,"lng":78.489128,"ornamentId":"ap1","observedAt":1771949807408},{"guid":"8fef550aaeec3689a2421fa0cdaec26c.16","title":"devi mata shrine","lat":17.407778,"lng":78.482207,"ornamentId":"ap1","observedAt":1771949807408},{"guid":"e63dd6cc5bed4cd2a6bd2af9c0427875.16","title":"Sarvrepalli Radha Krishna Mural","lat":17.404533,"lng":78.484921,"ornamentId":"ap1","observedAt":1771949807409},{"guid":"fc229855942d4b8198571032e84e0e17.16","title":"Mata temple on Himayathnagar Road","lat":17.403924,"lng":78.481629,"ornamentId":"ap1","observedAt":1771949807409},{"guid":"17e879b33fb54dfea40f76cf7ce7cd5e.16","title":"Devi Arch","lat":17.408867,"lng":78.490626,"ornamentId":"ap1","observedAt":1771949807409},{"guid":"d9755b40195d41988882a0a6a40c0886.16","title":"LORD SHIVA TEMPLE","lat":17.403067,"lng":78.487376,"ornamentId":"ap1","observedAt":1771949807410},{"guid":"cc3334ffe60d3f24bb53a5b508548b5f.16","title":"Indian Lady with water pots Mural","lat":17.405057,"lng":78.490336,"ornamentId":"ap1","observedAt":1771949807411},{"guid":"9c62c969da0b460587dbbdbf0b90244c.16","title":"Hanuman Sculpture","lat":17.409579,"lng":78.485541,"ornamentId":"ap1","observedAt":1771949807411},{"guid":"f19889f055d43bb4b757b39b86b8f5a3.16","title":"GHMC bride in Pali mural","lat":17.405672,"lng":78.488227,"ornamentId":"ap1","observedAt":1771949807413},{"guid":"1370b8a3df56313291ab03d768169470.16","title":"Sitting Women Mural","lat":17.407177,"lng":78.489741,"ornamentId":"ap1","observedAt":1771949807414},{"guid":"bddcd8c21d324b3e9b36659a9360b679.16","title":"whale Graffiti","lat":17.407914,"lng":78.485877,"ornamentId":"ap1","observedAt":1771949807415},{"guid":"4a3aa64d10364cea9689117ef12788c2.16","title":"Lal Bahadur Shastry Mural","lat":17.404733,"lng":78.485648,"ornamentId":"ap1","observedAt":1771949807415},{"guid":"c385390108ba3bffa0a2da7c4588f7df.16","title":"Sri Vijaya Vinayaka Temple","lat":17.408271,"lng":78.487038,"ornamentId":"ap1","observedAt":1771949807417},{"guid":"1195d8a1b3683ead806c878c113838c6.16","title":"Village Woman Mural","lat":17.400534,"lng":78.488222,"ornamentId":"ap1","observedAt":1771949807417},{"guid":"1800a15a476530ef86e2f15dc874fd65.16","title":"Huber & Holly","lat":17.400945,"lng":78.487287,"ornamentId":"ap1","observedAt":1771949807418},{"guid":"0824bb22e588412f9bbf188a60b8eb57.16","title":"Wall Graffiti","lat":17.408361,"lng":78.48522,"ornamentId":"ap1","observedAt":1771949807419},{"guid":"ecbf963ba99e396c9f1ac87750085b1f.16","title":"Veera Hanuman Temple","lat":17.402441,"lng":78.487254,"ornamentId":"ap1","observedAt":1771949807419},{"guid":"97ba019706813653a831df726567c903.16","title":"Minerva Coffee Shop","lat":17.401276,"lng":78.485248,"ornamentId":"ap1","observedAt":1771949807420},{"guid":"6eb5727ce23b47d2b37769550801e6bd.16","title":"yellamma temple","lat":17.408284,"lng":78.482272,"ornamentId":"ap1","observedAt":1771949807421},{"guid":"37e4a5815e3d44279ddb6949bff8b7b2.16","title":"Yellamma Pochamma Gudi","lat":17.405594,"lng":78.485201,"ornamentId":"ap1","observedAt":1771949807421},{"guid":"7c26b8a64094480cbee79f6c5490d234.16","title":"Swami Vivekananda Bust","lat":17.405877,"lng":78.489846,"ornamentId":"ap1","observedAt":1771949807422},{"guid":"5e04885e40653b7fbb464fd2ef84f97c.16","title":"Burger King","lat":17.401522,"lng":78.486084,"ornamentId":"ap1","observedAt":1771949807422},{"guid":"e68a8e0d13533d139bcb3003b794e614.16","title":"Happy Kids Mural","lat":17.406494,"lng":78.488411,"ornamentId":"ap1","observedAt":1771949807423},{"guid":"c55f0ed589063cb58b5224822c190330.16","title":"Ashoknagar community hall","lat":17.406477,"lng":78.489782,"ornamentId":"ap1","observedAt":1771949807423},{"guid":"c59a060859193629a6a34130a2d219ca.16","title":"BasketBall Court","lat":17.408412,"lng":78.480314,"ornamentId":"ap1","observedAt":1771949807423},{"guid":"b443ff67b2963c619aaf65bebd3df35e.16","title":"Playing sister's Mural","lat":17.406846,"lng":78.48936,"ornamentId":"ap1","observedAt":1771949807424},{"guid":"6519aa8969fe36e499416c8f1a67f719.16","title":"Tribal Mural","lat":17.407518,"lng":78.48018,"ornamentId":"ap1","observedAt":1771949807425},{"guid":"6ae2e5f5df0043e49b0b10846a9c4b74.16","title":"Maisamma Temple","lat":17.408699,"lng":78.481246,"ornamentId":"ap1","observedAt":1771949807425},{"guid":"e76760ed66a9336a9f8b6a0b133011a7.16","title":"Zion Prayer House","lat":17.404445,"lng":78.487925,"ornamentId":"ap1","observedAt":1771949807425},{"guid":"47cdd680a57d43f2b0f49fe68e1904d7.16","title":"Govt. College of Physical Education","lat":17.410303,"lng":78.482141,"ornamentId":"ap1","observedAt":1771949807425},{"guid":"6fcda04d6a87467ea052a783f42d9f4c.16","title":"DURGA MATA TEMPLE","lat":17.403514,"lng":78.486734,"ornamentId":"ap1","observedAt":1771949807426},{"guid":"7b368db14abe45f68ddd8e8e0b4f2287.16","title":"COW GRAFFITI","lat":17.407979,"lng":78.487333,"ornamentId":"ap1","observedAt":1771949807426},{"guid":"355541e632dd3cbb90ed795d10414b77.16","title":"Swachh Bharath Mural","lat":17.406844,"lng":78.486989,"ornamentId":"ap1","observedAt":1771949807426},{"guid":"e01454d7a2bf40d0a2f1f49178c6319c.16","title":"Vinayaka on Leaf","lat":17.406322,"lng":78.489216,"ornamentId":"ap1","observedAt":1771949807427},{"guid":"34071d401761393c9556ff7149ba3861.16","title":"Ashoknagar Cricket Ground","lat":17.40398,"lng":78.488369,"ornamentId":"ap1","observedAt":1771949807427},{"guid":"be174a629fa838e6924452d0cfd23e0b.16","title":"Haindavi Degree College","lat":17.402896,"lng":78.487377,"ornamentId":"ap1","observedAt":1771949807427},{"guid":"257ca68d089437b292c0467a5169ecdf.16","title":"ST Paul's Degree College","lat":17.40062,"lng":78.488775,"ornamentId":"ap1","observedAt":1771949807427},{"guid":"8eca0c066efb45cc9a739288b88fed68.16","title":"Rajendraprasad Mural","lat":17.404543,"lng":78.485691,"ornamentId":"ap1","observedAt":1771949807429},{"guid":"f0407eb4013f3fb485477591cff847ab.16","title":"Bala Sai Baba Temple","lat":17.41012,"lng":78.480034,"ornamentId":"ap1","observedAt":1771949807429},{"guid":"afd4aae594744fe4b0df9ea3633797ec.16","title":"Mata Temple On Road","lat":17.402711,"lng":78.487132,"ornamentId":"ap1","observedAt":1771949807430},{"guid":"db876958ad694ac589e1e65fcbddcaae.16","title":"Himayatnagar Post Office","lat":17.402434,"lng":78.486804,"ornamentId":"ap1","observedAt":1771949807430},{"guid":"fba157b7f4364ae098a405bee7b3e96b.16","title":"Lord Shiv Temple","lat":17.40508,"lng":78.488522,"ornamentId":"ap1","observedAt":1771949807430},{"guid":"3b62cdd1f3ce3ebe8196894f8247317e.16","title":"GHMC Farmer's family Mural","lat":17.405537,"lng":78.488507,"ornamentId":"ap1","observedAt":1771949807431},{"guid":"626fe9354f29488bb009d8e537b3e309.16","title":"SRI SRI SRI BALATRIPURASUNDHARI TEMPLE","lat":17.405592,"lng":78.484324,"ornamentId":"ap1","observedAt":1771949807431},{"guid":"ecc70d68553a43fe88203b5d1a3d479e.16","title":"Mutnuri Krishna Rao Statue","lat":17.4169,"lng":78.481108,"ornamentId":"ap1","observedAt":1771949807434},{"guid":"1d79789cfb963c9ca1c39905158407c7.16","title":"Gita Darshan Sant Darshan","lat":17.411847,"lng":78.480881,"ornamentId":"ap1","observedAt":1771949807435},{"guid":"724ea8cc12b64c17a81555872da5b500.16","title":"Sri Renuka Ellamma Devalayam","lat":17.41077,"lng":78.485087,"ornamentId":"ap1","observedAt":1771949807436},{"guid":"c0dec73b150f495eabace1cc8a0bc97c.16","title":"Sri Sri Statue","lat":17.416609,"lng":78.480754,"ornamentId":"ap1","observedAt":1771949807436},{"guid":"5d69ad27fd7047b284e3866916f9bb32.16","title":"Durga Temple on Lower Tank Bund","lat":17.418598,"lng":78.482698,"ornamentId":"ap1","observedAt":1771949807436},{"guid":"5d9660f3d19d47d0afe5ef80d6b6ee88.16","title":"Maqdoom Mohiyuddin Statue","lat":17.418114,"lng":78.482015,"ornamentId":"ap1","observedAt":1771949807437},{"guid":"6895253cc64d475294fdd7856fa3be15.16","title":"Kandhukuri Veeresalingam Statue","lat":17.418575,"lng":78.482361,"ornamentId":"ap1","observedAt":1771949807437},{"guid":"aafa91e1a56e421e85feebd60669b53a.16","title":"Shyam Temple","lat":17.411829,"lng":78.481757,"ornamentId":"ap1","observedAt":1771949807437},{"guid":"4f65afd03ef34c6ea8f5011b628ef7bc.16","title":"Indira Park","lat":17.41226,"lng":78.480316,"ornamentId":"ap1","observedAt":1771949807438},{"guid":"f1839b7626254170a809393fb497925b.16","title":"Tripuraneni Ramaswamy Chaudary","lat":17.419368,"lng":78.483061,"ornamentId":"ap1","observedAt":1771949807438},{"guid":"d3ca827d07654383a42b8a17c893048f.16","title":"Pingali Venkayya Statue","lat":17.418844,"lng":78.482886,"ornamentId":"ap1","observedAt":1771949807438},{"guid":"71617b05b10944cdbf6be86c0a8544e6.16","title":"Ramakrishna Math","lat":17.411597,"lng":78.481667,"ornamentId":"ap1","observedAt":1771949807439},{"guid":"6c0545c395fe41c4b3f518fbe38bd34d.16","title":"Pratap Reddy Statue","lat":17.417649,"lng":78.481642,"ornamentId":"ap1","observedAt":1771949807439},{"guid":"502346d48c734c57a5d41b24d3b1823f.16","title":"Sri Nalla Pochamma Devalayamu","lat":17.410773,"lng":78.484329,"ornamentId":"ap1","observedAt":1771949807440},{"guid":"8cbf5f57a89142dca4b7766a0fac231e.16","title":"Sarvepalli Radhakrishna Statue","lat":17.416402,"lng":78.480627,"ornamentId":"ap1","observedAt":1771949807440},{"guid":"d2f60582d6c54665a320ea8c560dc1ef.16","title":"Tyagayya","lat":17.416043,"lng":78.480257,"ornamentId":"ap1","observedAt":1771949807440},{"guid":"aafe76dc041a4b1fac7d5eef37f94c2b.16","title":"Gurram Jashuva","lat":17.417216,"lng":78.481398,"ornamentId":"ap1","observedAt":1771949807441},{"guid":"442faa6dfab436ea8733a6bdc7206d87.16","title":"Mata Temple On The Road","lat":17.4109,"lng":78.483675,"ornamentId":"ap1","observedAt":1771949807441},{"guid":"d6b473841a344a16ab2293aa2efa6b0c.16","title":"Tanisha","lat":17.413271,"lng":78.478462,"ornamentId":"ap1","observedAt":1771949807448},{"guid":"3b8eb23d46e24008997fbb77e942a240.16","title":"Potanamathyudu","lat":17.411942,"lng":78.477513,"ornamentId":"ap1","observedAt":1771949807450},{"guid":"8f36069d4e224ea1a2ce924dc68e05fe.16","title":"Peacock Statue At Tankbund","lat":17.414858,"lng":78.479039,"ornamentId":"ap1","observedAt":1771949807450},{"guid":"9f62c46edce7428ba0ec0781174c16a8.16","title":"Sri Krishna Deva Raya Statue","lat":17.415637,"lng":78.479701,"ornamentId":"ap1","observedAt":1771949807450},{"guid":"e5a5d62f56a142be9dc84b12bc95acfe.16","title":"Yerrapragada Statue","lat":17.41101,"lng":78.476892,"ornamentId":"ap1","observedAt":1771949807451},{"guid":"ae621454d716420f8ea22f950aa61b3a.16","title":"Gautam Buddha","lat":17.413072,"lng":78.477946,"ornamentId":"ap1","observedAt":1771949807451},{"guid":"c6a006d352ef473489d6ff2d1bce55f7.16","title":"Sri Varasidhi Vinayaka Temple","lat":17.410983,"lng":78.478747,"ornamentId":"ap1","observedAt":1771949807452},{"guid":"6919688684af4dc4a0f66a51ece14306.16","title":"Kshatriya Statue","lat":17.41492,"lng":78.479384,"ornamentId":"ap1","observedAt":1771949807452},{"guid":"ee6ce9f0500d4a33a32f11d185e039b1.16","title":"Ramadasu Statue","lat":17.415636,"lng":78.479944,"ornamentId":"ap1","observedAt":1771949807453},{"guid":"4366ac1ed2064ee39a61c689d5645914.16","title":"Maisama Temple","lat":17.41292,"lng":78.478306,"ornamentId":"ap1","observedAt":1771949807453},{"guid":"56d1411490814594b9408cb74165294a.16","title":"Brahmmanaidu Statue","lat":17.413971,"lng":78.47893,"ornamentId":"ap1","observedAt":1771949807453},{"guid":"d77f1e0455a24260866f2719fbbf1535.16","title":"Annamayya Statue","lat":17.411418,"lng":78.477127,"ornamentId":"ap1","observedAt":1771949807453},{"guid":"ba807760e62d448abf1f18eb60644ba9.16","title":"Gandimaisamma Temple","lat":17.411224,"lng":78.477326,"ornamentId":"ap1","observedAt":1771949807453},{"guid":"7add9aaad10943b8a02c438773566723.16","title":"Potuluri Veerabrahmendra Swamy Statue","lat":17.414363,"lng":78.479134,"ornamentId":"ap1","observedAt":1771949807454},{"guid":"98dcc2d066fe4ab1b698415b978eb0d8.16","title":"Vemana","lat":17.412312,"lng":78.47771,"ornamentId":"ap1","observedAt":1771949807454},{"guid":"4f4292f762594581ad6da0e42caf66a9.16","title":"Siddhendra Yogi","lat":17.412784,"lng":78.47804,"ornamentId":"ap1","observedAt":1771949807454},{"guid":"9af86d480b8b4aabbbef2e2b653d3673.16","title":"Molla Statue","lat":17.413675,"lng":78.4787,"ornamentId":"ap1","observedAt":1771949807454},{"guid":"83a8439ef44f41738b7f032e756dd804.16","title":"Pooh and His Friends","lat":17.399585,"lng":78.490876,"ornamentId":"ap1","observedAt":1771949807582},{"guid":"4eeabc1935e03b4dbc6393f6abd5ec9d.16","title":"Lakshmi Ganapati Temple","lat":17.407605,"lng":78.495236,"ornamentId":"ap1","observedAt":1771949807589},{"guid":"7764895a972c30d28859248b6ebe9a93.16","title":"GHMC Swachh Bharat","lat":17.404543,"lng":78.491306,"ornamentId":"ap1","observedAt":1771949807590},{"guid":"94f79d25bfe4419e99c40836b6a868a5.16","title":"City Central Library","lat":17.404003,"lng":78.492061,"ornamentId":"ap1","observedAt":1771949807591},{"guid":"4d76e09144033cb7bab303c647fb331c.16","title":"Pendekanti College","lat":17.40537,"lng":78.494548,"ornamentId":"ap1","observedAt":1771949807592},{"guid":"0112b4f10015399f9d91dbd861d55b86.16","title":"Kali Mata Gudi","lat":17.402005,"lng":78.494491,"ornamentId":"ap1","observedAt":1771949807592},{"guid":"77baf1e50b453af6a22039be4433a482.16","title":"Ganesh Temple","lat":17.403469,"lng":78.493315,"ornamentId":"ap1","observedAt":1771949807593},{"guid":"d2a9f4ccdede45298108eeef05395cfd.16","title":"Uppallamma Temple","lat":17.406699,"lng":78.49642,"ornamentId":"ap1","observedAt":1771949807594},{"guid":"0a14512fcf8e476aba15ed876236b601.16","title":"Venkateswara Temple Entrance","lat":17.402684,"lng":78.495245,"ornamentId":"ap1","observedAt":1771949807594},{"guid":"b86c518c7ae939098ed3edd57a3d729e.16","title":"Chikkadpally Metro Terminal","lat":17.400281,"lng":78.494876,"ornamentId":"ap1","observedAt":1771949807594},{"guid":"47d7ca8754d34402b03a906f3e1c7796.16","title":"Muncipal Local Park","lat":17.404027,"lng":78.494183,"ornamentId":"ap1","observedAt":1771949807595},{"guid":"4ce1f93ad03a430a869ba468921cb2fb.16","title":"Panchamukhi Anjaneya Devasthanamu","lat":17.406759,"lng":78.496184,"ornamentId":"ap1","observedAt":1771949807596},{"guid":"2dc44cb786154ed1b99381b69637f9e3.16","title":"Ashta Lakshmi Temple","lat":17.406999,"lng":78.493278,"ornamentId":"ap1","observedAt":1771949807596},{"guid":"43605bea22973447b15544610e6e43bf.16","title":"Lakshmi Ganapati Temple Arch","lat":17.407339,"lng":78.495128,"ornamentId":"ap1","observedAt":1771949807596},{"guid":"f1d239d694994dc2b07678f39ea0683e.16","title":"Shiv parvati wall mural","lat":17.404657,"lng":78.492851,"ornamentId":"ap1","observedAt":1771949807597},{"guid":"5f28673dd2264027addc195428e806d7.16","title":"Little Ganesha Temple","lat":17.404732,"lng":78.493903,"ornamentId":"ap1","observedAt":1771949807597},{"guid":"99b207dab2d94431833e601a130fed64.16","title":"Temple In Chikkadpally","lat":17.401972,"lng":78.493697,"ornamentId":"ap1","observedAt":1771949807597},{"guid":"a5411ec01cee43188e2f50ecbbad32c3.16","title":"Hanumanth Roa Park","lat":17.405213,"lng":78.493433,"ornamentId":"ap1","observedAt":1771949807598},{"guid":"58b517ef724541e099895142899edb7e.16","title":"Mata Temple","lat":17.401187,"lng":78.492126,"ornamentId":"ap1","observedAt":1771949807598},{"guid":"04b56af93dde4be282ea70db3d03d063.16","title":"statue of musician","lat":17.40404,"lng":78.493006,"ornamentId":"ap1","observedAt":1771949807598},{"guid":"1280649fb0af4db58979b2692bf70775.16","title":"Hanuman Statue","lat":17.404552,"lng":78.493051,"ornamentId":"ap1","observedAt":1771949807599},{"guid":"c3b9953cf4354a18b3a0537585850a9c.16","title":"Ashok Nagar Post Office","lat":17.404435,"lng":78.492292,"ornamentId":"ap1","observedAt":1771949807599},{"guid":"9c06067df42e3f769bf61b7e5d22021b.16","title":"St Joseph College","lat":17.406935,"lng":78.491842,"ornamentId":"ap1","observedAt":1771949807599},{"guid":"d099b9f4891c4c81b0ed6076e9e0de0b.16","title":"Veerashankar Statue","lat":17.408353,"lng":78.492426,"ornamentId":"ap1","observedAt":1771949807600},{"guid":"42587433f27032cd85889a2a05022490.16","title":"Jahnavi College","lat":17.404498,"lng":78.494361,"ornamentId":"ap1","observedAt":1771949807601},{"guid":"13d7d9c5d8d233bc8d2f41c65b34a234.16","title":"Hanuman Mandir","lat":17.406327,"lng":78.492008,"ornamentId":"ap1","observedAt":1771949807601},{"guid":"b1e237b7cafd3d68825875579743d57c.16","title":"Vignan Degree College","lat":17.401514,"lng":78.491578,"ornamentId":"ap1","observedAt":1771949807601},{"guid":"1bb1c94c307e305dab98c3c5ecb7417b.16","title":"Ammavari Temple","lat":17.404418,"lng":78.493999,"ornamentId":"ap1","observedAt":1771949807601},{"guid":"bbcaf435c6564afe996e7deb07ba97c7.16","title":"Ammavari Temple","lat":17.405318,"lng":78.493695,"ornamentId":"ap1","observedAt":1771949807602},{"guid":"f59ad66d82e54aeaa1751834e5746b18.16","title":"Lord Hanuman Temple Chikadpally","lat":17.406307,"lng":78.493323,"ornamentId":"ap1","observedAt":1771949807602},{"guid":"c47c689e844438bca369679a2b377548.16","title":"Bird And Nest Mural","lat":17.398217,"lng":78.493838,"ornamentId":"ap1","observedAt":1771949807744},{"guid":"0316d25513114b869c848b531c697d88.16","title":"Temple Arch","lat":17.399206,"lng":78.491783,"ornamentId":"ap1","observedAt":1771949807745},{"guid":"9f52743119f6384dbf01c5c1bcdfa96f.16","title":"Mata Shrine","lat":17.39911,"lng":78.494085,"ornamentId":"ap1","observedAt":1771949807745},{"guid":"b01219c9ca404a0295bc7de56f2157e9.16","title":"Manikeshwara Temple","lat":17.399485,"lng":78.491407,"ornamentId":"ap1","observedAt":1771949807745},{"guid":"f9e0ee0f8df04c068772e5b2c8122871.16","title":"Dargah Himayatnagar Road","lat":17.403826,"lng":78.476214,"ornamentId":"ap1","observedAt":1771949808202},{"guid":"6196d38f070449f58a6bd30be3d4c480.16","title":"DR. B. R. Ambedkar Statue","lat":17.40876,"lng":78.475497,"ornamentId":"ap1","observedAt":1771949808203},{"guid":"ace76682d0353482816e968b3cb1a8b7.16","title":"Bhimrao Ramji Ambedkar Statue","lat":17.402291,"lng":78.477433,"ornamentId":"ap1","observedAt":1771949808203},{"guid":"89fa7f7f846e4367ada059cc576998f1.16","title":"Gagan Mahal Chowk Statue","lat":17.40806,"lng":78.478614,"ornamentId":"ap1","observedAt":1771949808204},{"guid":"a2304194798f43588c04609411fa20bd.16","title":"Shiva Temple","lat":17.406979,"lng":78.476676,"ornamentId":"ap1","observedAt":1771949808204},{"guid":"69ee7197c54b3e119b2cb3c7f5f3ccea.16","title":"Gazebo at lawn","lat":17.402994,"lng":78.477441,"ornamentId":"ap1","observedAt":1771949808204},{"guid":"5c133c3752c23843a31c46198f9aff88.16","title":"AV College","lat":17.408511,"lng":78.478958,"ornamentId":"ap1","observedAt":1771949808205},{"guid":"cbb149d271b8412ca7e7a794b131e472.16","title":"Nannayya Statue","lat":17.409791,"lng":78.47609,"ornamentId":"ap1","observedAt":1771949808205},{"guid":"a09b94b15877474fa482b33e83cb69d7.16","title":"Shaliwahana","lat":17.409516,"lng":78.476239,"ornamentId":"ap1","observedAt":1771949808205},{"guid":"b69a3f0e3c6c3ff2862ced4d7c107137.16","title":"Bhagat Singh Statue","lat":17.408736,"lng":78.478664,"ornamentId":"ap1","observedAt":1771949808206},{"guid":"0080e1e1d0334d39a3f08a80b09b6751.16","title":"Thikkana Somayaji Statue","lat":17.410547,"lng":78.476534,"ornamentId":"ap1","observedAt":1771949808206},{"guid":"6c97cbb8c87b4bc4a651fb63927d1a6f.16","title":"Mahavir Hanuman Mandir","lat":17.402311,"lng":78.476748,"ornamentId":"ap1","observedAt":1771949808206},{"guid":"db58bd3dc20d4d9282bc93ed928eb34c.16","title":"Shunkalamma Alayam","lat":17.402321,"lng":78.47641,"ornamentId":"ap1","observedAt":1771949808206},{"guid":"8bd2bf91891f3d23ae50ecebf1b5a774.16","title":"Charminar Mural","lat":17.403767,"lng":78.476773,"ornamentId":"ap1","observedAt":1771949808207},{"guid":"ae30829f8bbe3f1cb0ff7b62053fc0c5.16","title":"Institute Of Lokayukta","lat":17.402824,"lng":78.475373,"ornamentId":"ap1","observedAt":1771949808207},{"guid":"c51263ba4f6745e49fbf45dbae05d0fa.16","title":"Legend Warrior Statue","lat":17.40981,"lng":78.478917,"ornamentId":"ap1","observedAt":1771949808208},{"guid":"85500f85f9143526be48b53eef3a89b5.16","title":"Agarwal's Family Dhaba Resturant","lat":17.405566,"lng":78.479713,"ornamentId":"ap1","observedAt":1771949808208},{"guid":"994026a4774149d1872761a600c48812.16","title":"Mata Temple","lat":17.407915,"lng":78.477695,"ornamentId":"ap1","observedAt":1771949808208},{"guid":"754c4bd3ec3f4a0c8e3d173661263ddd.16","title":"Tree Art On The Wall","lat":17.407716,"lng":78.479505,"ornamentId":"ap1","observedAt":1771949808209},{"guid":"3ab1b82625de4ece9030ef784da90dbd.16","title":"Venkateshwara Temple","lat":17.406128,"lng":78.478932,"ornamentId":"ap1","observedAt":1771949808209},{"guid":"7144c7c5880e4e588082302e414dfa4f.16","title":"Tank Bund Mosque","lat":17.408807,"lng":78.47585,"ornamentId":"ap1","observedAt":1771949808209},{"guid":"94777f4e2d9639e3842f67c0cb2f15d1.16","title":"Ambedkar Plague","lat":17.402626,"lng":78.477946,"ornamentId":"ap1","observedAt":1771949808210},{"guid":"625b11ff89b84761afd76c38cc8438cb.16","title":"9 Gods of Palace Colony","lat":17.406409,"lng":78.474727,"ornamentId":"ap1","observedAt":1771949808211},{"guid":"690a6ab2541140668942ed46f9fbaec4.16","title":"Tankbund Arch","lat":17.409411,"lng":78.475826,"ornamentId":"ap1","observedAt":1771949808211},{"guid":"87f21ec7aeae31d7b884ab353d918d79.16","title":"Shivling on the road","lat":17.408869,"lng":78.478433,"ornamentId":"ap1","observedAt":1771949808211},{"guid":"d55c50acef6a4210b637f1f4a5206ac5.16","title":"Mosque","lat":17.402554,"lng":78.476323,"ornamentId":"ap1","observedAt":1771949808211},{"guid":"23f47aabd8693d7787ddc1025a39a823.16","title":"Sri Surya Narayana Temple","lat":17.402311,"lng":78.475662,"ornamentId":"ap1","observedAt":1771949808212},{"guid":"cd892cb7c4453a22a2e4df7f21a7a0da.16","title":"Shiva Shakti Mandir","lat":17.403179,"lng":78.477318,"ornamentId":"ap1","observedAt":1771949808212},{"guid":"925f4917f8a13e9b821d19f30dfe6a9d.16","title":"Masjid-E-Paigah","lat":17.40567,"lng":78.475343,"ornamentId":"ap1","observedAt":1771949808213},{"guid":"36b4a2e168a13120a0ff4556b4286457.16","title":"నల్ల పోచమ్మ గుడి","lat":17.403096,"lng":78.478072,"ornamentId":"ap1","observedAt":1771949808213},{"guid":"2d6eaf0e090b48e18dba32f3e831701a.16","title":"Statue near Liberty Cross Road","lat":17.407457,"lng":78.476392,"ornamentId":"ap1","observedAt":1771949808213},{"guid":"acb33323416c3874b085d36e39fd6233.16","title":"Nalla Pochamma Temple","lat":17.402584,"lng":78.475199,"ornamentId":"ap1","observedAt":1771949808214},{"guid":"f96c3af6e1144d3997db5dcbad120bd6.16","title":"Tankbund Sculpture","lat":17.409071,"lng":78.475045,"ornamentId":"ap1","observedAt":1771949808214}]}