{"portals":[{"guid":"c078622a90e947e7b64533dbacda31c3.16","title":"Tiflološki muzej","lat":45.806234,"lng":15.983852,"ornamentId":"ap1"},{"guid":"101ac4818cbf453abc0f38aa9c7bacae.16","title":"Uspavani div","lat":45.807061,"lng":15.981953,"ornamentId":"ap1"},{"guid":"1ff4f3679a2945039c263f471ae8e19a.16","title":"Knjižnica za slijepe","lat":45.806457,"lng":15.983627,"ornamentId":"ap1"},{"guid":"9d20e010580c4903b9deb9141816ca07.16","title":"Floral lady","lat":45.806347,"lng":15.980102,"ornamentId":"ap1"},{"guid":"6773c64f26e74b83beacffa67f4e146a.16","title":"A Couple With a Wreath","lat":45.805296,"lng":15.975496,"ornamentId":"ap1"},{"guid":"a837455cc3a544c0b05fdd09d7aa47cc.16","title":"Trpimir's park","lat":45.807038,"lng":15.985285,"ornamentId":"ap1"},{"guid":"7f67d7d45e6d31cf8c606e22fa4528e3.16","title":"Plavi umjetnik","lat":45.806607,"lng":15.985681,"ornamentId":"ap1"},{"guid":"ba9fec6875f14c34a2d3409f979bda55.16","title":"Veleposlanstvo Republike Kosovo","lat":45.806174,"lng":15.979419,"ornamentId":"ap1"},{"guid":"9c98e11096244dda955b41ef1fc0e7cf.16","title":"Flying Wheel","lat":45.804762,"lng":15.975367,"ornamentId":"ap1"},{"guid":"deed4dea654b4e1ba9ab013a3e935a81.11","title":"Parna Lokomotiva","lat":45.804739,"lng":15.980504,"ornamentId":"ap1"},{"guid":"bb4c7bcc249e498b89c84c04601553c6.16","title":"Hotel Astoria","lat":45.807185,"lng":15.980399,"ornamentId":"ap1"},{"guid":"c1f8ed36fbf249e2ae3c131a81a5c5b6.16","title":"Crkva Isusa Krista","lat":45.806986,"lng":15.975172,"ornamentId":"ap1"},{"guid":"faf67c476cb14b359b1b0cdc550a4bf5.16","title":"Faces West","lat":45.807038,"lng":15.978308,"ornamentId":"ap1"},{"guid":"aabf1e7c996349da8d9427b770db0dd2.16","title":"Tibor Halasi-Kun Memorial","lat":45.805558,"lng":15.980352,"ornamentId":"ap1"},{"guid":"3742711927c5420ebdf185e31ca11dc6.16","title":"Hrvatska Starokatolička Crkva","lat":45.805671,"lng":15.981405,"ornamentId":"ap1"},{"guid":"99301ae5520b4b40826eb7338d564a70.16","title":"Krokodil Frajer","lat":45.804733,"lng":15.976367,"ornamentId":"ap1"},{"guid":"b54668e1bd38488d9c4938e470bf6506.11","title":"Glavni Kolodvor","lat":45.804849,"lng":15.9788,"ornamentId":"ap1"},{"guid":"d1f4700043c54cd4a78af447ec6316dc.16","title":"Meduse","lat":45.806351,"lng":15.977903,"ornamentId":"ap1"},{"guid":"4fd620d8c37947b8b0bcf875ec07aa2b.16","title":"Angel Killed the Beast","lat":45.806815,"lng":15.97789,"ornamentId":"ap1"},{"guid":"d1e098a6158a44d1a2a50d50cc0459e8.16","title":"Umjetnički Paviljon","lat":45.806927,"lng":15.978668,"ornamentId":"ap1"},{"guid":"cef2fb28630a4ef88ea2a2307ac8cccf.12","title":"Ante Starčević","lat":45.805802,"lng":15.977685,"ornamentId":"ap1"},{"guid":"bf05058bef664161982a93118039337c.16","title":"Old Railway Building","lat":45.805786,"lng":15.975355,"ornamentId":"ap1"},{"guid":"88bb7411c6d04047b517175cba6c8869.16","title":"Urbanisti","lat":45.805751,"lng":15.979653,"ornamentId":"ap1"},{"guid":"5f7a55e74a9e44e7b471435998060674.16","title":"Gradska Knjižnica","lat":45.805783,"lng":15.977174,"ornamentId":"ap1"},{"guid":"c5c757d4434c4c1fa3f9b38e3e0b30d9.12","title":"Kralj Tomislav Statue","lat":45.80565,"lng":15.978711,"ornamentId":"ap1"},{"guid":"b9a83e7777bb4a50bd3ecef8c1d4afbb.16","title":"Slavoljub Penkala 1871-1922 godine","lat":45.806566,"lng":15.977798,"ornamentId":"ap1"},{"guid":"bea3a00bbf42410798c604ea35d284d3.11","title":"Fountain at Ante Starčević Square","lat":45.805293,"lng":15.976975,"ornamentId":"ap1"},{"guid":"1cc049fda0784ba29a4bb15ba0d4a394.16","title":"Hž Building","lat":45.805887,"lng":15.97595,"ornamentId":"ap1"},{"guid":"23f72b7106c1425198f9969b1043616a.16","title":"Building with a Hat","lat":45.805773,"lng":15.976543,"ornamentId":"ap1"},{"guid":"7fabca4008f037558b222e0326324c38.16","title":"Marble Fountain","lat":45.805139,"lng":15.97758,"ornamentId":"ap1"},{"guid":"bfc1d863e8184ee9b27ab8659c1726ee.16","title":"Twins","lat":45.806399,"lng":15.982164,"ornamentId":"ap1"},{"guid":"a8653ce9338b4163a20b354864e01f77.16","title":"Iron Arch","lat":45.806433,"lng":15.979218,"ornamentId":"ap1"},{"guid":"5c30279be7af4dada00dda1349ff2c3a.16","title":"Two Eagles","lat":45.806937,"lng":15.979461,"ornamentId":"ap1"},{"guid":"afba84c682c245ca8f6c69449a95059e.16","title":"Guardian Angels","lat":45.806596,"lng":15.976639,"ornamentId":"ap1"},{"guid":"7f09939363554eb18749c61678203d2c.11","title":"Fontana Na Tomislavovom Trgu","lat":45.806354,"lng":15.97866,"ornamentId":"ap1"},{"guid":"158031b5546c407abde19dcc8d4f6aed.16","title":"Old Billboard","lat":45.805402,"lng":15.979339,"ornamentId":"ap1"},{"guid":"c3243f1244334e998aab14d489c6132e.16","title":"Reljef I Grafit","lat":45.806882,"lng":15.976617,"ornamentId":"ap1"},{"guid":"da74609b5a01416b95babbbbf40e36e6.16","title":"Asia Lions","lat":45.806446,"lng":15.979483,"ornamentId":"ap1"},{"guid":"7c7904e9408442d28cbd0ad058fb8554.16","title":"Golden Trumpeter","lat":45.805974,"lng":15.977922,"ornamentId":"ap1"},{"guid":"7dad98370659412dbfb233207aca93b7.16","title":"Magnificent Head","lat":45.806269,"lng":15.975244,"ornamentId":"ap1"},{"guid":"1536455a7d344e0f864a6c3e74c24e8c.16","title":"Esplanade Hotel","lat":45.805299,"lng":15.976299,"ornamentId":"ap1"},{"guid":"cd9f5dddb1b630ffb6baad286c5e70ff.16","title":"Zagreb-In Memory of victims","lat":45.804929,"lng":15.980436,"ornamentId":"ap1"},{"guid":"dbd12204fab0462d8716c2bd0d99b336.16","title":"Dr. Ivo Politeo memorial plaque","lat":45.806622,"lng":15.975178,"ornamentId":"ap1"},{"guid":"5b3edbfcc6dc423aa0bdbbe28a31068f.16","title":"Glavna Pošta","lat":45.805008,"lng":15.980973,"ornamentId":"ap1"},{"guid":"efc9777b983c494780db3c9f71468494.16","title":"Moj Vitez","lat":45.805547,"lng":15.982881,"ornamentId":"ap1"},{"guid":"838bd5f47b614206ad6886c2b5d9dfbe.16","title":"Floral Coat of Arms","lat":45.806514,"lng":15.981065,"ornamentId":"ap1"},{"guid":"04948626335a4d86a9e0f80a84198fce.16","title":"Scena “Vidra”","lat":45.806042,"lng":15.983893,"ornamentId":"ap1"},{"guid":"91ce39d102c141569b617e09bdebf099.16","title":"The song of angels","lat":45.80609,"lng":15.982223,"ornamentId":"ap1"},{"guid":"aa51690259a94366b0f869fe2bbb8789.16","title":"Plac Branimirac","lat":45.806252,"lng":15.991511,"ornamentId":"ap1"},{"guid":"6ca108c76ee83c9589c6e31e1e7abae5.16","title":"PMP - Marija Jurić Zagorka","lat":45.807181,"lng":15.98972,"ornamentId":"ap1"},{"guid":"6002b1d08c3d48e2b76da0c4508a220e.16","title":"Amphitheatre KT","lat":45.806932,"lng":15.99003,"ornamentId":"ap1"},{"guid":"1682ef30773a450ead215dfaeef1942d.16","title":"Hrvatski zavod za mirovinsko osiguranje","lat":45.806719,"lng":15.988892,"ornamentId":"ap1"},{"guid":"4fdfeb95ed043ae199b8f3b01639f34c.16","title":"Park Kneževa 3D map","lat":45.807043,"lng":15.987599,"ornamentId":"ap1"},{"guid":"1b675f66e68445f1abeba6010d656ccb.16","title":"Domagoj's park West","lat":45.806536,"lng":15.986484,"ornamentId":"ap1"},{"guid":"24385ec6eb104b5f9ac20dbbeb46ce0c.16","title":"Josip Kulusic Plaque","lat":45.806914,"lng":15.988401,"ornamentId":"ap1"},{"guid":"39800a7a7be346bda8eba722d1e064be.16","title":"Nada Dimic Industrial Heritage","lat":45.805813,"lng":15.988152,"ornamentId":"ap1"},{"guid":"f728611fcd5a48e68c2ca2a361634767.16","title":"Ministarstvo Kulture","lat":45.805404,"lng":15.96922,"ornamentId":"ap1"},{"guid":"26fc2f8ebd804cd48e1440eb017fad2a.16","title":"Sing me the Song of Your People","lat":45.806402,"lng":15.974722,"ornamentId":"ap1"},{"guid":"d212edba866f4a80874f53af53338132.16","title":"Rat's World","lat":45.805672,"lng":15.971172,"ornamentId":"ap1"},{"guid":"d2dcfa22487d466c8cc91d6908522b56.16","title":"Vjekoslav Klaić House","lat":45.805643,"lng":15.972473,"ornamentId":"ap1"},{"guid":"c0fdc8a54c394346b71df2804069bc52.16","title":"Ghosts In The Wall","lat":45.80637,"lng":15.974073,"ornamentId":"ap1"},{"guid":"c1509851d83541d18608b4039627976c.16","title":"Glorie Van Weleer","lat":45.805713,"lng":15.973313,"ornamentId":"ap1"},{"guid":"7eedb974fa3140c68f158992f5c437c7.16","title":"Wisdom owls","lat":45.805976,"lng":15.970764,"ornamentId":"ap1"},{"guid":"924bf71a92234f3e8fc8a43b7e9f58ca.12","title":"Marko Marulić","lat":45.806986,"lng":15.970144,"ornamentId":"ap1"},{"guid":"f479c4b0453a413a8f1f60dd9cf7a26c.16","title":"FKIT","lat":45.80665,"lng":15.970976,"ornamentId":"ap1"},{"guid":"41077875b4c64d24af2fc36cf77910cf.16","title":"Laborers","lat":45.806053,"lng":15.974929,"ornamentId":"ap1"},{"guid":"3642f5b5a01b4e06a2e20cd6abb646de.12","title":"Don Frane Bulić Monument","lat":45.805708,"lng":15.970182,"ornamentId":"ap1"},{"guid":"a4475a2216154dbfa499658850cd3fc3.11","title":"King Petar Svačić Square","lat":45.807132,"lng":15.974562,"ornamentId":"ap1"},{"guid":"0c712466bca24e9b9c9043668174a83e.16","title":"The House Of Gustav Krklec","lat":45.806955,"lng":15.972215,"ornamentId":"ap1"},{"guid":"41d04882cab34162b7a5a479923dc421.16","title":"Judita Stone","lat":45.80654,"lng":15.970201,"ornamentId":"ap1"},{"guid":"937806767e9846279ca8425060b66fe6.16","title":"Building from 1897","lat":45.805868,"lng":15.969255,"ornamentId":"ap1"},{"guid":"01dd02b733fb44d1aa1bc40e54fa192f.16","title":"4 Seasons","lat":45.806613,"lng":15.972197,"ornamentId":"ap1"},{"guid":"43617fb232b44d2ab915b99d458d4216.16","title":"Scary Faces","lat":45.805626,"lng":15.971751,"ornamentId":"ap1"},{"guid":"84e32843fc0440b3a3fbe63501b664f0.16","title":"Dječje igralište - Kralja Petra Svačića","lat":45.806696,"lng":15.974132,"ornamentId":"ap1"},{"guid":"57c7e1d9d64b40408141c4757d4248cf.16","title":"Hat Saints","lat":45.806373,"lng":15.972425,"ornamentId":"ap1"},{"guid":"bfac498c3cb54250b68048891b7d0585.16","title":"Boys on the Wall","lat":45.806933,"lng":15.971026,"ornamentId":"ap1"},{"guid":"f9a591ea858a40d6abc53f9140277a73.16","title":"Mr. Fork","lat":45.807139,"lng":15.969555,"ornamentId":"ap1"},{"guid":"dd5e592b87ad4216874af9c891025934.12","title":"Croatian National Archives","lat":45.806267,"lng":15.970142,"ornamentId":"ap1"},{"guid":"3bb0823c4b6e45ec99236585648e09d8.16","title":"Mara Švel-Gamiršek plaque","lat":45.80632,"lng":15.969199,"ornamentId":"ap1"},{"guid":"00c40832ce684424880e52d65ef07de0.16","title":"Kumičićeva Relief","lat":45.805749,"lng":15.97391,"ornamentId":"ap1"},{"guid":"72ffd4a4ba414aacb198b323f154de2a.16","title":"Faculty of Chemical Engineering and Technology","lat":45.806822,"lng":15.96949,"ornamentId":"ap1"},{"guid":"4453ccb6e3f4460c94e3d84b88027931.16","title":"Eagle With His Company","lat":45.80645,"lng":15.974443,"ornamentId":"ap1"},{"guid":"4bf99f533ac04e959bc0342316ecc7c7.16","title":"Subspace Mural","lat":45.811339,"lng":15.97509,"ornamentId":"ap1"},{"guid":"30a0239e1a244f6f8d105b1fc168bac3.16","title":"ZKM-Zagrebacko Kazaliste Mladih","lat":45.81115,"lng":15.976059,"ornamentId":"ap1"},{"guid":"b7cf8393e8e44e63ad1c0465f0186764.16","title":"Duo","lat":45.812619,"lng":15.977914,"ornamentId":"ap1"},{"guid":"c81467a8312f481cbda82c2c834f2b9f.16","title":"Meštrovićev Relief","lat":45.813423,"lng":15.976778,"ornamentId":"ap1"},{"guid":"e4e24a2c5fd634e5a5821c18a500e543.16","title":"Street workout Ibler","lat":45.813171,"lng":15.984075,"ornamentId":"ap1"},{"guid":"0aa7be2bd97d40fe9c16a2651feeacde.16","title":"Joe Strummer","lat":45.807586,"lng":15.981389,"ornamentId":"ap1"},{"guid":"bdafb995673740b78f206a9e39cddfaa.16","title":"Piece of history","lat":45.809568,"lng":15.981126,"ornamentId":"ap1"},{"guid":"c16f4155e37e43dcb2dbd8776037e297.16","title":"Dragons In love","lat":45.814161,"lng":15.976372,"ornamentId":"ap1"},{"guid":"93737783806a48058215fc8067bc14e1.16","title":"Corinthian Pillar","lat":45.809222,"lng":15.97524,"ornamentId":"ap1"},{"guid":"2fcce85d69ca45cf87ee104e4faf457c.16","title":"Nikola Šubić Zrinski 1508-1566","lat":45.809286,"lng":15.978073,"ornamentId":"ap1"},{"guid":"4ef0c0a23e9a47588213e8c9f87628a4.16","title":"Model of Zagreb","lat":45.813457,"lng":15.978572,"ornamentId":"ap1"},{"guid":"a06cf264f075472486410ba081a2fffe.16","title":"Josip Pičman Memorial","lat":45.809898,"lng":15.976649,"ornamentId":"ap1"},{"guid":"7b8cbb1f81494b35aad2a63ccc474ed1.16","title":"Zen Spheres","lat":45.812853,"lng":15.980094,"ornamentId":"ap1"},{"guid":"77943ffd3bd4348c9cb5c6866dd6952f.16","title":"IOM - UN Migration","lat":45.811531,"lng":15.984856,"ornamentId":"ap1"},{"guid":"9c79cd02246747a484112d904dacf036.16","title":"KavaTava","lat":45.813695,"lng":15.977104,"ornamentId":"ap1"},{"guid":"da43883b06483ffab209379771955e8f.16","title":"the prisioner","lat":45.814831,"lng":15.976739,"ornamentId":"ap1"},{"guid":"eb25efc3725d474ea8dde88bb63fd67d.11","title":"Fountains in Draškovićeva","lat":45.811794,"lng":15.983744,"ornamentId":"ap1"},{"guid":"4c7ff157a99942ac97159cbe2cfa3aa1.16","title":"Flower arch","lat":45.808871,"lng":15.981817,"ornamentId":"ap1"},{"guid":"b7737a5db80f40fea5e3229f1635345f.16","title":"Nothing Creepy","lat":45.811711,"lng":15.979329,"ornamentId":"ap1"},{"guid":"f4a0f97209bd4e7991efc73b4481290a.16","title":"Wall Art","lat":45.814971,"lng":15.975282,"ornamentId":"ap1"},{"guid":"ed6a8a64ac2f400ba36486c640149b22.16","title":"Model of Cathedral","lat":45.814837,"lng":15.979347,"ornamentId":"ap1"},{"guid":"eaf96a51289d464bbacfd83c06372fc5.16","title":"Heracles","lat":45.810265,"lng":15.976463,"ornamentId":"ap1"},{"guid":"3f79ea1c184d477b9fe7140f87dfae9d.16","title":"Shrine at Langov Square","lat":45.814836,"lng":15.981534,"ornamentId":"ap1"},{"guid":"70acaa8853fd481ba018a78b09423582.16","title":"Ancient Writing","lat":45.810905,"lng":15.976589,"ornamentId":"ap1"},{"guid":"3cdeb41670e14f6da0dfb417417ee78b.16","title":"David on Top","lat":45.811548,"lng":15.981643,"ornamentId":"ap1"},{"guid":"c6d211e955d7450f99354904d4234258.16","title":"Baroque Coat of Arms","lat":45.808158,"lng":15.980104,"ornamentId":"ap1"},{"guid":"e8d57b6af7b44d28a124b5c05d8a8971.16","title":"U Spomen Prosinačkim Žrtvama","lat":45.812875,"lng":15.978613,"ornamentId":"ap1"},{"guid":"b2c130c5816c41829b00c602d3449cfa.16","title":"Two Stories","lat":45.80747,"lng":15.979467,"ornamentId":"ap1"},{"guid":"ddc0027d5eb843f585c79be60eb512c6.16","title":"Djeve Bajne","lat":45.807672,"lng":15.977765,"ornamentId":"ap1"},{"guid":"8efe0a7ceecb42bfa8b31590826aac91.12","title":"Ban Jelačić Statue","lat":45.813157,"lng":15.977264,"ornamentId":"ap1"},{"guid":"a7fb987916a14c558aa92569ce592574.16","title":"Stef and Jura with a big snake","lat":45.810966,"lng":15.985982,"ornamentId":"ap1"},{"guid":"e26d7109fc5c4e46a8c9f42830a5adb4.16","title":"Two Cupids","lat":45.810621,"lng":15.97731,"ornamentId":"ap1"},{"guid":"bed2b68ef25f4d58a1e03bda516fb5c7.16","title":"Frogs, Keys And Stuff","lat":45.813319,"lng":15.979248,"ornamentId":"ap1"},{"guid":"c8be6c0da1e844938f6542c4b2661906.16","title":"Yellow Ionian Pillar","lat":45.808128,"lng":15.984089,"ornamentId":"ap1"},{"guid":"eaf76f0db9da4b90aa63d4f21c604579.16","title":"St. Martin Church","lat":45.813658,"lng":15.981887,"ornamentId":"ap1"},{"guid":"b3c48242fb684ab99ae7ccba63f70a78.16","title":"OTV memorial","lat":45.811051,"lng":15.975396,"ornamentId":"ap1"},{"guid":"1639cd9367c44f1793c9d4641201cd6d.16","title":"Shell On Building","lat":45.810406,"lng":15.980508,"ornamentId":"ap1"},{"guid":"60ab7c8788824e6c8cc1acae348a368c.16","title":"Shaking Hands Gajeva","lat":45.809469,"lng":15.976466,"ornamentId":"ap1"},{"guid":"1bd39ee5ab3e4380b9484dc38a07fc00.16","title":"Pavao Markovac Plaque","lat":45.810325,"lng":15.975333,"ornamentId":"ap1"},{"guid":"921c4ef53be844b996c61fc97f01b38c.16","title":"Špina Clock","lat":45.810856,"lng":15.983505,"ornamentId":"ap1"},{"guid":"f0f7294c3ea44cf18407f8ac9a4b3968.16","title":"Boskoviceva Mural","lat":45.809819,"lng":15.981978,"ornamentId":"ap1"},{"guid":"85f2e54a733546fd9e7aff0b9cbbb08a.16","title":"Spomenik svibanjskim žrtvama","lat":45.814134,"lng":15.983397,"ornamentId":"ap1"},{"guid":"6e5fb0c60f0c4afa950d0c2a0c37d06b.16","title":"Kongelig Dansk Ambassade","lat":45.809702,"lng":15.979254,"ornamentId":"ap1"},{"guid":"b4850ddb48bb4079bac3c7476f101b34.11","title":"Zrinjevac Fountain","lat":45.809982,"lng":15.978622,"ornamentId":"ap1"},{"guid":"c769bda4534b405aa7a888eca6097866.16","title":"HNS Statues","lat":45.80843,"lng":15.985137,"ornamentId":"ap1"},{"guid":"2394be5480e24fc2984ac85f0f018f69.16","title":"Greek philosophers","lat":45.807678,"lng":15.976763,"ornamentId":"ap1"},{"guid":"281b39e9413043c49e530d9512e5ef2d.16","title":"Marijina crkva","lat":45.814392,"lng":15.976441,"ornamentId":"ap1"},{"guid":"69a62e5232f94a91b69c853b22a11d92.16","title":"Hum","lat":45.810604,"lng":15.979312,"ornamentId":"ap1"},{"guid":"458d88edec914acd8a5fc70ba9c4e17e.16","title":"Matica Hrvatska i Galerija Matice","lat":45.808501,"lng":15.979876,"ornamentId":"ap1"},{"guid":"2ae30454b0894193b2947863d2bab99d.16","title":"Memorial Plaque of Zagreb Synagogue","lat":45.811977,"lng":15.977617,"ornamentId":"ap1"},{"guid":"74e4a3225ac5460e9cac7d4b03ae8f4b.16","title":"Reljef U Arheološkom","lat":45.810935,"lng":15.976883,"ornamentId":"ap1"},{"guid":"eabaf25e6fb4370a80801ab657837534.16","title":"Knjigovežnica 1924","lat":45.812253,"lng":15.984417,"ornamentId":"ap1"},{"guid":"3d17fa1b56a042b98bd98358816cfe92.16","title":"Gradska Štedionica","lat":45.81309,"lng":15.978516,"ornamentId":"ap1"},{"guid":"5455c790dd8349a892cf9b0e99c5da42.16","title":"Two bearded pillars","lat":45.809086,"lng":15.98569,"ornamentId":"ap1"},{"guid":"ea862f01e46f4400b7f3c9b16f7c5279.16","title":"Izgubljeni u Šumi","lat":45.809854,"lng":15.982536,"ornamentId":"ap1"},{"guid":"20769e602ecc4745844ad331e738861d.16","title":"Seahorse on the wall","lat":45.811983,"lng":15.975002,"ornamentId":"ap1"},{"guid":"4f84d91a57484f16b052094a35323ee9.16","title":"Building O'clock","lat":45.810533,"lng":15.979861,"ornamentId":"ap1"},{"guid":"1beb878c1212432ba452a193b1f8f9ed.16","title":"Penelope","lat":45.812673,"lng":15.981756,"ornamentId":"ap1"},{"guid":"b04110de0d6e4e8f8cfcb9a349ea7c3b.16","title":"Klub Knjizevnika","lat":45.813275,"lng":15.977757,"ornamentId":"ap1"},{"guid":"7d2deddd80034348b5104c438ecc10be.16","title":"Center also has a Memorial Board to the Fallen Fighters","lat":45.813193,"lng":15.975988,"ornamentId":"ap1"},{"guid":"3b97ce25bf35499dabe6a3aebc6c88d9.16","title":"Old Building Petrinjska","lat":45.807748,"lng":15.980323,"ornamentId":"ap1"},{"guid":"5cd8cf7de18145978f90724b1e5c25cf.16","title":"Old Gray Clock","lat":45.811827,"lng":15.977401,"ornamentId":"ap1"},{"guid":"31a88d2f67304940bfd9b39785ebe7d9.16","title":"Spomen ploča palim drugovima","lat":45.810767,"lng":15.986039,"ornamentId":"ap1"},{"guid":"e931861a2a4f48c5bb5e88f5cdce2199.16","title":"Knez Krsto Frankopan","lat":45.809613,"lng":15.978216,"ornamentId":"ap1"},{"guid":"db8402f0f69834008abc662507c232d6.16","title":"Local community board Knez Mislav","lat":45.807927,"lng":15.986199,"ornamentId":"ap1"},{"guid":"346377db0d044a92919daf7110468a5c.16","title":"Broncani Novcic","lat":45.812549,"lng":15.978254,"ornamentId":"ap1"},{"guid":"94f11804eddd462facbb370e8d361036.16","title":"Metal Ball","lat":45.81306,"lng":15.982819,"ornamentId":"ap1"},{"guid":"22d39b9f02fe38cdb3ae0d59a9f38080.16","title":"Knjigotiskara Franjo Rulic","lat":45.812469,"lng":15.979962,"ornamentId":"ap1"},{"guid":"c1e58ad4a787421d9b4aa8dbaa8e5174.12","title":"Palace Hotel","lat":45.808421,"lng":15.977747,"ornamentId":"ap1"},{"guid":"1ceba2304b7849609f48a8b585dcae7d.16","title":"Nikola Tesla Plaque","lat":45.81135,"lng":15.977316,"ornamentId":"ap1"},{"guid":"7b0de1991360458db1401472ccc6e558.16","title":"Mercurio","lat":45.809418,"lng":15.9839,"ornamentId":"ap1"},{"guid":"d37cbd5f8998429fbac1c4e11b925215.16","title":"Boar Fighting With A Dog","lat":45.810748,"lng":15.976901,"ornamentId":"ap1"},{"guid":"849fa64a49d540d5b5c07df59dfea8b0.16","title":"Arheološki Muzej","lat":45.811016,"lng":15.977384,"ornamentId":"ap1"},{"guid":"88e4b2e53c874a43922794e44736368c.16","title":"Hidden gem","lat":45.810156,"lng":15.980394,"ornamentId":"ap1"},{"guid":"6e341f306b5a4f7c82f88f8af141f848.16","title":"Little Roof Tower","lat":45.811825,"lng":15.979624,"ornamentId":"ap1"},{"guid":"880f1ac985214949b60b02f4d55cc085.16","title":"Bazilika Srca Isusovog","lat":45.808887,"lng":15.982082,"ornamentId":"ap1"},{"guid":"3e8595bac99947fda306cac7c4d06ef5.16","title":"Gimme Water","lat":45.814901,"lng":15.977124,"ornamentId":"ap1"},{"guid":"2ee67d14a84b4a8ab4fcfe9290d5c34d.11","title":"Ruža vjetrova","lat":45.811317,"lng":15.978082,"ornamentId":"ap1"},{"guid":"3072029091d23879ace7e658f5bc0f27.16","title":"North Tower","lat":45.814876,"lng":15.979986,"ornamentId":"ap1"},{"guid":"50f1b6cb3b62431a9265fb7cd39ff1d7.16","title":"Karaka","lat":45.809196,"lng":15.97582,"ornamentId":"ap1"},{"guid":"0a55115376a14599899be83f153148c3.16","title":"Hrvatski Športski Muzej","lat":45.812504,"lng":15.9775,"ornamentId":"ap1"},{"guid":"63138995d73f4f13a8c78d6a6332768b.12","title":"Josip Juraj Strossmayer Statue","lat":45.808803,"lng":15.978562,"ornamentId":"ap1"},{"guid":"534d8cfc6f3d4f8383e2352e9146eec6.16","title":"Wooden Skyscraper","lat":45.812337,"lng":15.985278,"ornamentId":"ap1"},{"guid":"b52b3480ba0648da8230ae81a37c6e1f.16","title":"Katz","lat":45.808558,"lng":15.97853,"ornamentId":"ap1"},{"guid":"3d89efcb8c1e4fe6a855077c0e9c72c3.16","title":"Kaptol - Dolac","lat":45.814308,"lng":15.977949,"ornamentId":"ap1"},{"guid":"5222f922fdda46418580d1cac6076982.16","title":"Old Building in Gajeva","lat":45.810549,"lng":15.976509,"ornamentId":"ap1"},{"guid":"96ccf8cf9582434599ac73c6b125aa9d.16","title":"Building as a Ship","lat":45.81125,"lng":15.979884,"ornamentId":"ap1"},{"guid":"4328e6ebe28d4c13bef910e845ea3e09.16","title":"Old Lady Face","lat":45.807598,"lng":15.980733,"ornamentId":"ap1"},{"guid":"bf16c0f863eb30459ba48bf4e6ba143a.16","title":"Love Zagreb","lat":45.813664,"lng":15.978648,"ornamentId":"ap1"},{"guid":"96a58f07d2c84e13aa9e7f8b6632ef21.16","title":"Head in Museum","lat":45.811303,"lng":15.976933,"ornamentId":"ap1"},{"guid":"3c0297f25ad843e591214b81992df8ab.16","title":"Xxl Guitar 2","lat":45.813715,"lng":15.984208,"ornamentId":"ap1"},{"guid":"99658b96501846e0961d7ca09014dc35.16","title":"Little Angel","lat":45.812299,"lng":15.977486,"ornamentId":"ap1"},{"guid":"a2ae4c4b83624c22ac14bd34005e0838.16","title":"Sailors Dream","lat":45.80873,"lng":15.978096,"ornamentId":"ap1"},{"guid":"d87848fa259745e4a41c4b575494dd92.16","title":"Lion's Gate","lat":45.808394,"lng":15.976889,"ornamentId":"ap1"},{"guid":"f7f8d0538c644600ba47f2aaa9ee4a28.11","title":"Ivan pl. Kukuljević Bust","lat":45.809612,"lng":15.978938,"ornamentId":"ap1"},{"guid":"b065275cc8a04e8987bb3c5de9f8c225.11","title":"Manduševac","lat":45.812988,"lng":15.97795,"ornamentId":"ap1"},{"guid":"078ca5f132514dbd890134a942353306.16","title":"Ljudevit Gaj Bust","lat":45.811707,"lng":15.976384,"ornamentId":"ap1"},{"guid":"ac0e486d9b77465184b6a1e659b7103f.16","title":"Veliki torzo","lat":45.812428,"lng":15.98053,"ornamentId":"ap1"},{"guid":"b7676df3714e42f486bc34bbc95352bc.16","title":"Looking Down on Draškovićeva","lat":45.808769,"lng":15.9837,"ornamentId":"ap1"},{"guid":"f139b44ee7274b44aa4cb599c878efbe.16","title":"Croatian Naive Art Society","lat":45.81464,"lng":15.97618,"ornamentId":"ap1"},{"guid":"c62f58403fbf43888f587d905b3c5d69.16","title":"Kristova Crkva","lat":45.811715,"lng":15.980489,"ornamentId":"ap1"},{"guid":"f505cfdf739a40f1a0523ba808adc89b.16","title":"Imela Substitute","lat":45.810925,"lng":15.978398,"ornamentId":"ap1"},{"guid":"484cd07ce6d04194bf5cd2435b36819d.11","title":"Juraj Julije Klović","lat":45.809639,"lng":15.978552,"ornamentId":"ap1"},{"guid":"07efe5321a754cee828d71eba5c3b8ba.16","title":"Small Butterfly","lat":45.812719,"lng":15.983676,"ornamentId":"ap1"},{"guid":"aab9b001ce5e46c6b0e94a24135652b0.16","title":"Southern Defense Tower","lat":45.814265,"lng":15.978916,"ornamentId":"ap1"},{"guid":"6f7d1bc74d6f43038121735ef4ea96fa.16","title":"Dionysus","lat":45.810302,"lng":15.981901,"ornamentId":"ap1"},{"guid":"bab5b3d699d4425fbbbca40b1f8fccd1.16","title":"Red Pillar","lat":45.812239,"lng":15.975946,"ornamentId":"ap1"},{"guid":"fc88e9af4fc740babd4cd98c7cbc3b4a.16","title":"Wounded Jesus Church","lat":45.812964,"lng":15.975755,"ornamentId":"ap1"},{"guid":"b14720bde11e4d77b1b4193cb61c18bf.16","title":"Conceptio Razvoj","lat":45.807948,"lng":15.979425,"ornamentId":"ap1"},{"guid":"6c529a6e4c1b43ccb8a67d3e784fbe61.16","title":"Art","lat":45.812111,"lng":15.982591,"ornamentId":"ap1"},{"guid":"a5bda6ada417432fba78c07d0bf27e90.16","title":"August Šenoa Bust","lat":45.808601,"lng":15.979054,"ornamentId":"ap1"},{"guid":"246304f925644a34b0a54e9bb0d1b2c9.16","title":"House of August Šenoa Plaque","lat":45.813962,"lng":15.982632,"ornamentId":"ap1"},{"guid":"6f420e0685a94824916a13b00bdc7da9.16","title":"Bradati Rimljanin","lat":45.81201,"lng":15.979396,"ornamentId":"ap1"},{"guid":"820f21e303034dbf9164979050a1da07.16","title":"Grounded Sun","lat":45.812149,"lng":15.975467,"ornamentId":"ap1"},{"guid":"631af96243644364a5ca140d2f786d24.16","title":"Croatia in European Union","lat":45.813348,"lng":15.979646,"ornamentId":"ap1"},{"guid":"bce03ea1713948f385d7a86df1c51251.16","title":"Looking Down on Vlaška","lat":45.813209,"lng":15.980574,"ornamentId":"ap1"},{"guid":"25fdee757982408291f67ad80e6a773a.16","title":"Knjižnica HAZU","lat":45.808234,"lng":15.978645,"ornamentId":"ap1"},{"guid":"a50ad9423bda4ee2b082f8200f66c771.16","title":"Đorđićeva Building","lat":45.810708,"lng":15.980558,"ornamentId":"ap1"},{"guid":"f3149a4e12d44b09bdc6099dbcae20ef.16","title":"Apollon","lat":45.812794,"lng":15.976851,"ornamentId":"ap1"},{"guid":"7287552f8cb542dd9011861c8faa7dd8.16","title":"Proleterski čekići","lat":45.810886,"lng":15.984556,"ornamentId":"ap1"},{"guid":"e6d192fe5c5d4ca89412c7afe4119fa2.11","title":"Post Office Jurišićeva","lat":45.812458,"lng":15.981036,"ornamentId":"ap1"},{"guid":"c2e780dd316f4258b0e5dacad139bce8.12","title":"August Šenoa","lat":45.813783,"lng":15.98166,"ornamentId":"ap1"},{"guid":"5ae1471cd7ee46069984fdbbadaff8a4.16","title":"Farmacija","lat":45.808677,"lng":15.975827,"ornamentId":"ap1"},{"guid":"73549b1954954c0e8833c76bb077cf28.16","title":"Tri Nimfe","lat":45.810187,"lng":15.983572,"ornamentId":"ap1"},{"guid":"12a8b80cc5e0388b851767ec66fb85de.16","title":"Felidavian","lat":45.809992,"lng":15.984214,"ornamentId":"ap1"},{"guid":"786a476e468a460bbcf24fc418f1f35b.16","title":"Dance, baby, Dance","lat":45.812858,"lng":15.981955,"ornamentId":"ap1"},{"guid":"e6c011a5376e40eca9904d22df66ba89.16","title":"Old Croatian Coat of Arms","lat":45.809742,"lng":15.980969,"ornamentId":"ap1"},{"guid":"f8f75d941e33428f9021ded695ecaa2a.12","title":"Hotel Dubrovnik","lat":45.812247,"lng":15.976341,"ornamentId":"ap1"},{"guid":"847ba608e869400cb524a521154b58af.16","title":"Guardian entrance","lat":45.809385,"lng":15.981789,"ornamentId":"ap1"},{"guid":"cfa0d236b4a54d17856e42948a35a682.16","title":"Kumičićeva smrtna kuća","lat":45.811156,"lng":15.981924,"ornamentId":"ap1"},{"guid":"5bdf564f33bc4e4f9467eb05212faee9.16","title":"Franjo Rački","lat":45.808913,"lng":15.979543,"ornamentId":"ap1"},{"guid":"a88973d484d94041975f72fbf54d25ca.11","title":"Fountain on Iblerov trg","lat":45.812629,"lng":15.984852,"ornamentId":"ap1"},{"guid":"823aa7609c0b4c979f2640b47f6b1cbc.12","title":"Zagrebačka Katedrala","lat":45.814537,"lng":15.9793,"ornamentId":"ap1"},{"guid":"6de48cfd7ee649e4873125ee50449532.16","title":"Sunflower Ornament","lat":45.810208,"lng":15.979131,"ornamentId":"ap1"},{"guid":"936c07fd7bdb44ba9223144248dea805.11","title":"Ruđer Bošković","lat":45.809336,"lng":15.978992,"ornamentId":"ap1"},{"guid":"22a8a3a91c0c427bba7118ab96c93170.16","title":"Wrapped In Something","lat":45.807622,"lng":15.975163,"ornamentId":"ap1"},{"guid":"d20dcccb0e3445ee8b590076ba924b66.16","title":"Child's Play","lat":45.809508,"lng":15.98044,"ornamentId":"ap1"},{"guid":"f70c8be98c66453ca39351e2cd026317.16","title":"Veleposlanstvo Japana","lat":45.809445,"lng":15.979421,"ornamentId":"ap1"},{"guid":"e0efc36747e1455aa047c1f9f8c30ac2.16","title":"Zaljubljeni","lat":45.809746,"lng":15.983585,"ornamentId":"ap1"},{"guid":"5b70912a70074037b7cf17459e6736c3.16","title":"Vlaho Paljetak statue","lat":45.812652,"lng":15.975893,"ornamentId":"ap1"},{"guid":"d2e4f9caafb04d97aaea09c41b20e7bc.16","title":"Spomen ploča Milanu Lenuciju","lat":45.80873,"lng":15.977762,"ornamentId":"ap1"},{"guid":"9d9eef6a2f314762870c4d45c2b3cf98.16","title":"Eyes in the Corner Graffiti","lat":45.813783,"lng":15.984554,"ornamentId":"ap1"},{"guid":"ddfa5a7cb5724c77b91db29ff3d3bb9d.11","title":"Old Building in Jurišićeva","lat":45.812526,"lng":15.980279,"ornamentId":"ap1"},{"guid":"5485cda151c849bb9ce55f5e11cf835d.16","title":"Amazing Zagreb","lat":45.809313,"lng":15.985394,"ornamentId":"ap1"},{"guid":"6d16307467c942eb857433075e0bba45.12","title":"Ivan Mažuranić Bust","lat":45.809542,"lng":15.977935,"ornamentId":"ap1"},{"guid":"2a9a4bc9bd5a4f16b63010b25635935f.11","title":"Herman Bolle Fountain","lat":45.810857,"lng":15.977884,"ornamentId":"ap1"},{"guid":"0a7775bc3db34836b8291c019e809990.16","title":"To citizen of Zagreb","lat":45.810089,"lng":15.979946,"ornamentId":"ap1"},{"guid":"da5ac6e9373743cb98ca4db7522f8073.16","title":"Tužni balon medvjedić","lat":45.814297,"lng":15.982828,"ornamentId":"ap1"},{"guid":"78a12aae90483189b90ce7ce05a006cb.16","title":"Kamen spoticanja Arnold Gross","lat":45.813742,"lng":15.977976,"ornamentId":"ap1"},{"guid":"725018554928434a81ec610198427703.12","title":"Shooting of Hostages","lat":45.807728,"lng":15.978616,"ornamentId":"ap1"},{"guid":"1230ccb3481840bf935e8be6ff2e1f51.16","title":"Happy Farmer Couple","lat":45.813793,"lng":15.984835,"ornamentId":"ap1"},{"guid":"7eca31935a4f41e39b4f8f46876e875f.16","title":"Svećenički Dom","lat":45.813205,"lng":15.981677,"ornamentId":"ap1"},{"guid":"b29a88aa48504983815f53ee6aebb80c.16","title":"Ugly Guy","lat":45.813662,"lng":15.979372,"ornamentId":"ap1"},{"guid":"96ab45796c3d4b37b96005ec58d3cbaf.16","title":"Ranjenik","lat":45.808918,"lng":15.977249,"ornamentId":"ap1"},{"guid":"cd18863748b0471b88e184ac72ee5c26.12","title":"Petrica Kerempuh","lat":45.814772,"lng":15.977481,"ornamentId":"ap1"},{"guid":"f9a30ddf359b434f90f8cf259e5ff6b6.16","title":"Glazbeni paviljon","lat":45.810472,"lng":15.978239,"ornamentId":"ap1"},{"guid":"0bf06d8bdbd94e94b7c09dce40d2148f.16","title":"Kumica","lat":45.813793,"lng":15.976881,"ornamentId":"ap1"},{"guid":"d1be94a6ae7742048a569969067163df.16","title":"Old Statue","lat":45.807475,"lng":15.977869,"ornamentId":"ap1"},{"guid":"e71bd025d30049b3aa025e5fc620a36e.16","title":"SKD Prosvjeta","lat":45.81051,"lng":15.975694,"ornamentId":"ap1"},{"guid":"2f76e93acc7748ad950e715ea3d9fdb9.16","title":"Grounded Venus","lat":45.813488,"lng":15.976469,"ornamentId":"ap1"},{"guid":"85a197c4b761413e966dfd43b4d64c94.16","title":"Horny Gates","lat":45.811767,"lng":15.980024,"ornamentId":"ap1"},{"guid":"18318f6687704da49542e03910bc1919.16","title":"Stube Kalasancija Schlossera","lat":45.814324,"lng":15.983474,"ornamentId":"ap1"},{"guid":"5619ccf42e734bdfa62cba5adb8fb78e.16","title":"Two Green Caps","lat":45.811976,"lng":15.985531,"ornamentId":"ap1"},{"guid":"7ad8b3a7bdd241f3a46a40bb9a250a20.16","title":"Veleposlanstvo Suverenog malteškog viteškog reda","lat":45.808065,"lng":15.977813,"ornamentId":"ap1"},{"guid":"a63ec42eb995469a9a4905ffcd86ea33.16","title":"Razlistana Forma","lat":45.812677,"lng":15.976421,"ornamentId":"ap1"},{"guid":"547484a6c97f4f179e957ee0d87cc01f.16","title":"Croatian Geodetic Society","lat":45.812698,"lng":15.978399,"ornamentId":"ap1"},{"guid":"cf80407ff9be434ba1650e1cddc3457a.16","title":"Supreme Court Of Croatia","lat":45.811554,"lng":15.978498,"ornamentId":"ap1"},{"guid":"582df1f66cbe4bc187f1d3e6beb1db06.12","title":"Stjepan Radić","lat":45.812343,"lng":15.978995,"ornamentId":"ap1"},{"guid":"6052eb92e9264b4cabc2d902e47c2857.16","title":"Zrinjevac playground","lat":45.809125,"lng":15.9789,"ornamentId":"ap1"},{"guid":"5ef4795525d04db08b3ab9d0a7c3f9c8.16","title":"Pimp My Pump Zrinjevac","lat":45.810376,"lng":15.978485,"ornamentId":"ap1"},{"guid":"0c7a8f5cf8bc4a47999d7810862951d3.16","title":"Rodna Kuća Antuna Mihanovića","lat":45.813351,"lng":15.977112,"ornamentId":"ap1"},{"guid":"27996b5337eb4cb4b50135e5f8b568be.16","title":"Hrvatska akademija znanosti i umjetnosti","lat":45.809342,"lng":15.978485,"ornamentId":"ap1"},{"guid":"fea00bab246143bd8964c25dac173229.16","title":"Gjuro Pilar Plaque","lat":45.810513,"lng":15.976874,"ornamentId":"ap1"},{"guid":"cd93f4300e754ed3922af2d9af667144.16","title":"Lions Den","lat":45.810466,"lng":15.981774,"ornamentId":"ap1"},{"guid":"3190b91287dc3d899646c0d59264c0c4.16","title":"Kamen spoticanja Miroslav Salom Freiberger","lat":45.811666,"lng":15.980817,"ornamentId":"ap1"},{"guid":"b4104a63d9da4a428a250a4ca31574c3.16","title":"Hepok Face","lat":45.812454,"lng":15.979591,"ornamentId":"ap1"},{"guid":"326d320bf7d8484f8c35c6cbce2422b5.11","title":"Benedikt Kotruljević","lat":45.807877,"lng":15.984378,"ornamentId":"ap1"},{"guid":"c360d4028d4841ed880a4b428d1cff14.16","title":"1898 Building Art","lat":45.808245,"lng":15.981936,"ornamentId":"ap1"},{"guid":"7952b07f9a7d4f71839f97736890269a.11","title":"Žena by Meštrović","lat":45.810949,"lng":15.985168,"ornamentId":"ap1"},{"guid":"428860cb95014504ba94f490eda2f4ea.16","title":"Cathedral Defense Tower","lat":45.815006,"lng":15.979232,"ornamentId":"ap1"},{"guid":"b21333ce7cf149e69f4a6ce9dbb34dd8.16","title":"HBO Balcony","lat":45.808797,"lng":15.976384,"ornamentId":"ap1"},{"guid":"2590c94de9d74643a9177f218752c9b2.16","title":"Grounded Mars","lat":45.814945,"lng":15.976168,"ornamentId":"ap1"},{"guid":"41cf1fbc3f8843e8a630bd8061d71262.16","title":"The Clock","lat":45.813207,"lng":15.976514,"ornamentId":"ap1"},{"guid":"2f13105575c24926b7a60d8114b548dc.16","title":"Stone Vase","lat":45.812353,"lng":15.981651,"ornamentId":"ap1"},{"guid":"79c1d46d4d544ed08a82662992d666b5.12","title":"Statue of Mary","lat":45.814679,"lng":15.978638,"ornamentId":"ap1"},{"guid":"7e0b3ad1bf3c4b44a8a1aa5db9b6ea71.16","title":"Bitch, I'm fabulous","lat":45.80779,"lng":15.98284,"ornamentId":"ap1"},{"guid":"636baf7ceef344fc925220a105ed6ad3.16","title":"Faust Vrančić","lat":45.814535,"lng":15.975162,"ornamentId":"ap1"},{"guid":"9d6a719ab142463380b2bc87b87cac33.16","title":"Drzavnoodvjetnicko","lat":45.808175,"lng":15.976262,"ornamentId":"ap1"},{"guid":"9e44d27b2ae24789a636163c02857edd.16","title":"Ambasada Crne Gore","lat":45.811536,"lng":15.977716,"ornamentId":"ap1"},{"guid":"a960d9aeeb58402aa212696a2e32f4cc.16","title":"Sarkofag U Arheološkom","lat":45.811092,"lng":15.976742,"ornamentId":"ap1"},{"guid":"7c1cbf4998e74f308ad55dcfa3d1d5e9.16","title":"Neogothic","lat":45.80903,"lng":15.980903,"ornamentId":"ap1"},{"guid":"10684db6b0b746c7951f8f05bf31d7be.16","title":"IHS ornament","lat":45.809069,"lng":15.982012,"ornamentId":"ap1"},{"guid":"8be7255c5bab43d5849a2bcb9a6abb54.11","title":"Dragutin Domjanić Bust","lat":45.80794,"lng":15.978061,"ornamentId":"ap1"},{"guid":"ae30b506e28839abb03e723063bc5312.16","title":"Street art","lat":45.807664,"lng":15.986238,"ornamentId":"ap1"},{"guid":"41b8c3d0a96440bca01f8a2c18818c48.16","title":"Pilari","lat":45.811501,"lng":15.979212,"ornamentId":"ap1"},{"guid":"e02b08b4f7113ea689939d0d5633d952.16","title":"Climbing man on the wall","lat":45.81234,"lng":15.984963,"ornamentId":"ap1"},{"guid":"3814decb919146d1aafe2fa0c6dd1aed.16","title":"John Lenon Statue","lat":45.807598,"lng":15.981676,"ornamentId":"ap1"},{"guid":"f49b5296aa713db895a606ec243dcd57.16","title":"Torpedo","lat":45.813151,"lng":15.976813,"ornamentId":"ap1"},{"guid":"72d3217528c84e5dbe366705facc0d13.16","title":"Kazalište Lutaka","lat":45.807492,"lng":15.977055,"ornamentId":"ap1"},{"guid":"8308935352bc4dc881f04b517924e4f4.16","title":"Fontana Zrinjevac","lat":45.80995,"lng":15.977986,"ornamentId":"ap1"},{"guid":"d8e5a4a3fdf74559ab3b85659581077b.11","title":"Fontane Draškovićeva","lat":45.812042,"lng":15.984099,"ornamentId":"ap1"},{"guid":"f7ae822120464ffd8031bf7b1b17887b.11","title":"Andrija Medulić by Meštrović","lat":45.80743,"lng":15.978606,"ornamentId":"ap1"},{"guid":"a7983cfb34d43075b3fea8ace165731d.16","title":"Kamen spoticanja - Mario Sasson","lat":45.812856,"lng":15.976305,"ornamentId":"ap1"},{"guid":"ab3cd5ec80fe4e2ca268698690b44205.16","title":"Looking Down on Berislavićeva","lat":45.810515,"lng":15.976126,"ornamentId":"ap1"},{"guid":"72ccab30fb474e51a28a7af988aea913.16","title":"Modern Art Gallery Zagreb","lat":45.809248,"lng":15.977616,"ornamentId":"ap1"},{"guid":"fd89b587e6514ff3b82fd90070827183.16","title":"Sveta Barbara","lat":45.816243,"lng":15.978539,"ornamentId":"ap1"},{"guid":"ecb8b3a9daa6420587036e4aa50f04e8.16","title":"Small Fountain","lat":45.816336,"lng":15.980766,"ornamentId":"ap1"},{"guid":"783cb4066c373c5b9846478b16f07a72.16","title":"FAKIN IPA","lat":45.81585,"lng":15.976725,"ornamentId":"ap1"},{"guid":"36864d01f76e44a79c04802a26b0f1d8.16","title":"Mlinske Stube","lat":45.816546,"lng":15.975768,"ornamentId":"ap1"},{"guid":"195034e33d744a3e95fae49a519898fb.16","title":"First Chemistry Department","lat":45.818798,"lng":15.977806,"ornamentId":"ap1"},{"guid":"a6fb162d052c48c6abbf0ff3dfdfe24b.11","title":"Opatovina Park Monument","lat":45.817127,"lng":15.977035,"ornamentId":"ap1"},{"guid":"74eb968333914b30881ba6c9a514b830.16","title":"Musical Chick","lat":45.818895,"lng":15.976455,"ornamentId":"ap1"},{"guid":"4e59a7f426a84d83bb5a1d48451ddcd9.16","title":"Mary and Baby Jesus","lat":45.81796,"lng":15.977954,"ornamentId":"ap1"},{"guid":"1264dfe728d03570bdbd0fb4bec9ab32.16","title":"Galerija Kranjčar","lat":45.816338,"lng":15.979375,"ornamentId":"ap1"},{"guid":"d96c4c07cb6a4410b08d0ad68262b1bb.16","title":"Medieval Door","lat":45.817802,"lng":15.97553,"ornamentId":"ap1"},{"guid":"952fd0a7472a4a3098b7cd250e03943f.16","title":"Little Tkalča Mary","lat":45.815291,"lng":15.976548,"ornamentId":"ap1"},{"guid":"bb13dc4c749c4cfc93ac191ef7e69bee.12","title":"Chapel St . Cross","lat":45.819356,"lng":15.975124,"ornamentId":"ap1"},{"guid":"9c9a9f8dc28548cd9ceaf0b665756382.16","title":"PMS Store","lat":45.81772,"lng":15.976168,"ornamentId":"ap1"},{"guid":"72c8768c059245d3ad01a5eccdba8161.16","title":"Thumb Eye","lat":45.817499,"lng":15.976651,"ornamentId":"ap1"},{"guid":"13f780d603c94dd3836309be42a29525.16","title":"Kazalište Komedija","lat":45.816113,"lng":15.978302,"ornamentId":"ap1"},{"guid":"5a69cbcc1abc483b82d41249de8a5ec8.11","title":"Window Statue","lat":45.816809,"lng":15.976534,"ornamentId":"ap1"},{"guid":"a2cc4dd411b54918a3f72d73b35a2407.11","title":"Portal","lat":45.816634,"lng":15.976346,"ornamentId":"ap1"},{"guid":"1273f70b93ae4ddb8689015e6428ac95.16","title":"Maksimilian Vrhovec Plaque","lat":45.815568,"lng":15.978789,"ornamentId":"ap1"},{"guid":"85e9c93744594c53a5dca9d0c9daa19b.16","title":"West Tower","lat":45.815398,"lng":15.980219,"ornamentId":"ap1"},{"guid":"2f799d7f975849fb8e9076a3153dd98c.16","title":"Levitating Water Pipe","lat":45.816617,"lng":15.97653,"ornamentId":"ap1"},{"guid":"06f38a4cb81046dfb7b14fe0bc63864c.16","title":"Mária Over a Lamp","lat":45.816613,"lng":15.97847,"ornamentId":"ap1"},{"guid":"b6e01f6fee3f448dbf0e3d621a7d0d35.16","title":"Antun Kržan","lat":45.81517,"lng":15.978501,"ornamentId":"ap1"},{"guid":"6a34c03fb3d14456b0f452d4d1c41b6d.16","title":"Juraj Krizanic Statue","lat":45.815344,"lng":15.978259,"ornamentId":"ap1"},{"guid":"df538c6e3fc0450ab43335b49806f36c.16","title":"Dora Krupićeva","lat":45.815529,"lng":15.975097,"ornamentId":"ap1"},{"guid":"9b7e7754a75946249fe48b2159fd75d3.16","title":"Dimitrija Demeter plaque","lat":45.81701,"lng":15.975712,"ornamentId":"ap1"},{"guid":"5878c974700449ee9b24944bf053fcb3.16","title":"August Cesarec Bust","lat":45.8159,"lng":15.976409,"ornamentId":"ap1"},{"guid":"4cf8c257397a467fa5fc662987dfe52b.16","title":"Stube biskupa Duha","lat":45.816807,"lng":15.976878,"ornamentId":"ap1"},{"guid":"ccccdcd0adf64cd08fadacdbc19ad664.16","title":"Honorary Consulate Of The Syrian Arab Republic","lat":45.817716,"lng":15.977996,"ornamentId":"ap1"},{"guid":"0b3af105718641eda2fdadc0c6de2ccd.16","title":"Žuto Oko","lat":45.815134,"lng":15.977447,"ornamentId":"ap1"},{"guid":"b72796bc90fe4bd4a2184946a2b37c4e.16","title":"Antun Pl. Mihanović Plaque","lat":45.817336,"lng":15.975029,"ornamentId":"ap1"},{"guid":"41345775bb363b52871c1e1956623779.16","title":"Oaza u prirodi","lat":45.817666,"lng":15.978942,"ornamentId":"ap1"},{"guid":"1c35949cf04446f98ec600f6904d2918.16","title":"Ribnjak Playground","lat":45.8166,"lng":15.980931,"ornamentId":"ap1"},{"guid":"1fdd9ae72cc3340683629a99521fd996.16","title":"Mural \"Boss Cat\"","lat":45.817918,"lng":15.978784,"ornamentId":"ap1"},{"guid":"10c4d5d303e9463c9151e826881bb122.16","title":"Rimskodobni Nadgrobni Spomenik","lat":45.816111,"lng":15.980965,"ornamentId":"ap1"},{"guid":"4d3265511ffd4f86b85778d035ac9d87.11","title":"St. Francis Chruch Tower","lat":45.816628,"lng":15.977503,"ornamentId":"ap1"},{"guid":"65f87b00d1ba4859a6b043783a2ce9f7.16","title":"Stjepan Bakšić Plaque","lat":45.815768,"lng":15.978404,"ornamentId":"ap1"},{"guid":"54f001a75edf3e5c8a9a4820e4f351b1.16","title":"Friendly cats","lat":45.818374,"lng":15.978837,"ornamentId":"ap1"},{"guid":"2294db5412a341ba94434562578e454f.11","title":"Observatory in Zagreb","lat":45.819064,"lng":15.975013,"ornamentId":"ap1"},{"guid":"c69dbd69d74e4313b774d245f638abe4.11","title":"Ivan Goran Kovacic Monument","lat":45.817746,"lng":15.979452,"ornamentId":"ap1"},{"guid":"505f5f5854a74b27aed668d7a6218784.16","title":"Ivica I Marica","lat":45.817473,"lng":15.976364,"ornamentId":"ap1"},{"guid":"f1d676dfd9c44c748839853ce367ba7c.16","title":"Resting Gulliver","lat":45.81688,"lng":15.977449,"ornamentId":"ap1"},{"guid":"43482a87159c481cb14a23e2de18a7b0.16","title":"Antun Branko Šimić Plaque","lat":45.816424,"lng":15.977285,"ornamentId":"ap1"},{"guid":"ad8aa9aeacb748e5bda645730eba289f.11","title":"Shame by Augustincic","lat":45.816238,"lng":15.980036,"ornamentId":"ap1"},{"guid":"835f2fba1ac6419f84d146a3bf2bc748.16","title":"Kapelica na Kaptolu","lat":45.818608,"lng":15.977955,"ornamentId":"ap1"},{"guid":"5faec7913a5e495ba90f4a263abcff94.16","title":"Institut za Povijest","lat":45.81715,"lng":15.975044,"ornamentId":"ap1"},{"guid":"64a5833316724300b579c70c9c267413.16","title":"Fort Centar Kaptol","lat":45.817736,"lng":15.977044,"ornamentId":"ap1"},{"guid":"1b93275f2d8d470cbdfb4d4eeb020c79.16","title":"Zagrebačka Biblija","lat":45.81641,"lng":15.97834,"ornamentId":"ap1"},{"guid":"75f64d9b47044e90b3ffe80b94713959.16","title":"Roman Plaque","lat":45.816961,"lng":15.978069,"ornamentId":"ap1"},{"guid":"57037d12448b4cf6953e8623e7209a6f.12","title":"Marija Jurić Zagorka","lat":45.815166,"lng":15.976309,"ornamentId":"ap1"},{"guid":"bbb0842ab1da42cfa6f5f74443ccafd4.16","title":"Party Cats","lat":45.816811,"lng":15.97603,"ornamentId":"ap1"},{"guid":"61b60af377fc4b2dba6dacaa6319a36d.16","title":"I'm Gonna Play You A Note","lat":45.815583,"lng":15.976618,"ornamentId":"ap1"},{"guid":"92a1f316da09364a992a47ba09e510a6.16","title":"Monstera Mural","lat":45.817298,"lng":15.977314,"ornamentId":"ap1"},{"guid":"ec4b7520043140e7b95e33f3fbc80c15.16","title":"Franjo Buntak plaque","lat":45.81841,"lng":15.975472,"ornamentId":"ap1"},{"guid":"7736292c0b8d3ec6a193a2ee1e804594.16","title":"社会 - Društvo","lat":45.816582,"lng":15.979624,"ornamentId":"ap1"},{"guid":"b8faefde9e224371a6716da9af091203.11","title":"Crkva sv. Franje","lat":45.8167,"lng":15.97806,"ornamentId":"ap1"},{"guid":"c80424d0dda043f487a287f503db0f16.16","title":"Male stube","lat":45.815596,"lng":15.976082,"ornamentId":"ap1"},{"guid":"0c12a20a78b64b128b790cd513ef390b.16","title":"Stube Bartola Felbingera","lat":45.818177,"lng":15.976255,"ornamentId":"ap1"},{"guid":"bdf8fc45dd384d2981b814bcf9082c69.16","title":"Curia","lat":45.815414,"lng":15.978498,"ornamentId":"ap1"},{"guid":"f747edbd56104b678d75c0f777ca8f2a.16","title":"Twisted Pillars","lat":45.809445,"lng":15.988271,"ornamentId":"ap1"},{"guid":"2dc0787e74e24f08a903f4e4ec4d12bf.16","title":"Playground Petra Kresimira IV","lat":45.80827,"lng":15.991025,"ornamentId":"ap1"},{"guid":"9639c0f42b9e38cf97f926cb4877701c.16","title":"Ostanite sretni te čuvajte glavice","lat":45.807297,"lng":15.986705,"ornamentId":"ap1"},{"guid":"13a2938b47634ce2aea10ca1193b7627.11","title":"Mali dječak by Bohutinsky","lat":45.808425,"lng":15.991019,"ornamentId":"ap1"},{"guid":"815cdd32ac3b4deb916aa43e8fb42768.16","title":"Old Building in Ivana Šveara","lat":45.808558,"lng":15.988442,"ornamentId":"ap1"},{"guid":"5aafcfa06307463f96c8fc8ef305ad29.16","title":"Fontana Kod Džamije","lat":45.810236,"lng":15.98674,"ornamentId":"ap1"},{"guid":"f799ce2102b6340d8c9306a8cc4388ff.16","title":"Knjižnica Medveščak","lat":45.810165,"lng":15.988101,"ornamentId":"ap1"},{"guid":"0b5684b9a1c6403291feb9ba0a84de62.16","title":"Clock Tower ZTH","lat":45.809532,"lng":15.986324,"ornamentId":"ap1"},{"guid":"7af8a09c5d8c4ac3b9ecac2ab6d86354.16","title":"Balkon Art","lat":45.809953,"lng":15.988474,"ornamentId":"ap1"},{"guid":"b3f2eb507d10481f9bc21d677df13df8.16","title":"Križanićeva Plaque","lat":45.808538,"lng":15.98813,"ornamentId":"ap1"},{"guid":"2d22b90f6c564963a8d8dc270b7f8a52.16","title":"Kulušić","lat":45.807618,"lng":15.988916,"ornamentId":"ap1"},{"guid":"1948730b90dc4a318095fdbb290a17b6.11","title":"Meštrovićev paviljon","lat":45.809992,"lng":15.987189,"ornamentId":"ap1"},{"guid":"d428a87ffb3e4db79fc45ca3e0930983.16","title":"C.K. KPH. Sastanak","lat":45.807938,"lng":15.988521,"ornamentId":"ap1"},{"guid":"60b7064f3fd0434ca8fd3c6c3fba3de6.16","title":"Džamija playground","lat":45.809079,"lng":15.987314,"ornamentId":"ap1"},{"guid":"878bb7ff851e4b66adf899c2d4058cda.16","title":"Kozmički ciklus vode","lat":45.808347,"lng":15.990206,"ornamentId":"ap1"},{"guid":"28d2ef61aeef4ea999ab4b2ed6bb3873.16","title":"Babies and a Goat Trapped In a Very Small Square","lat":45.808752,"lng":15.987923,"ornamentId":"ap1"},{"guid":"7a3ee655fd234ddbacbc24fa28715f6c.11","title":"Njegovateljica ruža by Kršinić","lat":45.80828,"lng":15.990725,"ornamentId":"ap1"},{"guid":"7532b00052db41229f0177ee77545072.16","title":"Scream","lat":45.811696,"lng":15.970612,"ornamentId":"ap1"},{"guid":"9e97194a2a7448688192b1ffabbc029c.16","title":"Zgrada na Svačićevom","lat":45.807608,"lng":15.974207,"ornamentId":"ap1"},{"guid":"e88df176065e4cc88adde781c1ab9a38.16","title":"Herman Bolle Bust","lat":45.809824,"lng":15.968782,"ornamentId":"ap1"},{"guid":"e7813d1230e24fbea680599f4028c7da.16","title":"Ante Starčević Plaque","lat":45.814817,"lng":15.970778,"ornamentId":"ap1"},{"guid":"4682de65bfdd430ea7dfa82ab44e3ed9.16","title":"Hydro Meteorological Plaque","lat":45.814511,"lng":15.972015,"ornamentId":"ap1"},{"guid":"3dde983c51d44eedb363f8d1aa3712a0.16","title":"Balcony Maiden","lat":45.807528,"lng":15.971273,"ornamentId":"ap1"},{"guid":"757a2fff65264d66b53533553e93bcf0.16","title":"Fountain","lat":45.81491,"lng":15.971729,"ornamentId":"ap1"},{"guid":"7f5008fa28ef42938beee9c57175b597.12","title":"Crkva Sv. Preobraženja Gospodnjeg","lat":45.812611,"lng":15.973925,"ornamentId":"ap1"},{"guid":"b67d8cac4fa8439ab96558f5c599bcdb.16","title":"Praying owl","lat":45.81082,"lng":15.972746,"ornamentId":"ap1"},{"guid":"d313e0a8620b4b6dab9c2c92b45f226a.12","title":"Nikola Tesla","lat":45.811291,"lng":15.97416,"ornamentId":"ap1"},{"guid":"e18ef67214424b83949eb10dcfc47474.16","title":"HNK lamp","lat":45.809755,"lng":15.969634,"ornamentId":"ap1"},{"guid":"599634d9d0303b048da8fe80d5316216.16","title":"Caffe Cvjetni","lat":45.812203,"lng":15.973829,"ornamentId":"ap1"},{"guid":"3cabb7b7ab82488c9da1d6b3ed6ba8ce.16","title":"Angel Hostes","lat":45.80962,"lng":15.971696,"ornamentId":"ap1"},{"guid":"0b6d5b57079e4f5c91a6ed2152bdeb53.16","title":"Obla Česma","lat":45.812053,"lng":15.974117,"ornamentId":"ap1"},{"guid":"dd782ba1d34c4d4d99d6e06e274376a8.16","title":"Mr. Iron","lat":45.811389,"lng":15.974263,"ornamentId":"ap1"},{"guid":"69a0b028073440b9b80cf96a34a8a88e.16","title":"Graffiti","lat":45.809132,"lng":15.974442,"ornamentId":"ap1"},{"guid":"6be15cdf03104fddbd7e5cd225411b69.11","title":"Sculpture of a Boy","lat":45.814609,"lng":15.971631,"ornamentId":"ap1"},{"guid":"3ba8620d9d4d3341b746e46e1120aa7d.16","title":"Fontana u zidu","lat":45.813518,"lng":15.971594,"ornamentId":"ap1"},{"guid":"b0ec49cde1fb4bd2ad0bf6c9f033274b.16","title":"Forest Queen","lat":45.807563,"lng":15.973739,"ornamentId":"ap1"},{"guid":"789a1946909b42cb93a652945584ecdd.16","title":"Crkva Svetog Vinka","lat":45.811227,"lng":15.969463,"ornamentId":"ap1"},{"guid":"e40542ea66f44987a971bddd8421be5b.16","title":"Kallina","lat":45.81042,"lng":15.971996,"ornamentId":"ap1"},{"guid":"fd518522796a410eb7d4acc1cfb7c175.12","title":"Andrija Kačić Statue","lat":45.813384,"lng":15.970392,"ornamentId":"ap1"},{"guid":"f87f1f5502bb46af8cca91a1f18288b9.16","title":"Zazidane Glave","lat":45.808024,"lng":15.972337,"ornamentId":"ap1"},{"guid":"2ff1f26436324c069af0b6db0d76043b.16","title":"Happy Fat Kids","lat":45.811087,"lng":15.973898,"ornamentId":"ap1"},{"guid":"b10e817f39a6492b8a29a9a1dae7c7d8.16","title":"Thunder Shield","lat":45.812258,"lng":15.972145,"ornamentId":"ap1"},{"guid":"b3abb921e5334115a2fb906a99c0986b.16","title":"Dr. Milan Šufflay","lat":45.81165,"lng":15.969069,"ornamentId":"ap1"},{"guid":"a1561db214dc45598372f53ec41281f9.16","title":"Leksikografski zavod Miroslava Krleže","lat":45.81038,"lng":15.969004,"ornamentId":"ap1"},{"guid":"3a12bb76f3164670a4947af49f1ea05c.16","title":"Silence","lat":45.814051,"lng":15.972399,"ornamentId":"ap1"},{"guid":"95a8995ac4554ab8bc8a27c6ed4b6338.16","title":"Stone Fleur-De-Lis","lat":45.807966,"lng":15.971142,"ornamentId":"ap1"},{"guid":"5a2a3380a0004881859f6d1b8dceab5d.11","title":"Sestre Baković","lat":45.811707,"lng":15.973445,"ornamentId":"ap1"},{"guid":"047975bbe6b44d6cb116727bb2f6909f.16","title":"Gavella","lat":45.812169,"lng":15.968973,"ornamentId":"ap1"},{"guid":"0674a00111c94d4eb1920767080d5720.16","title":"Vatroslav Lisinski Birth House","lat":45.813255,"lng":15.970432,"ornamentId":"ap1"},{"guid":"1b0e0a95508b49358956a7b9fef0a4d5.12","title":"Tin Ujević Monument","lat":45.811902,"lng":15.973122,"ornamentId":"ap1"},{"guid":"c5f89ea676fc4b41ad345b5ab0708e16.16","title":"Narodne Novine","lat":45.813189,"lng":15.969815,"ornamentId":"ap1"},{"guid":"0639396c7c6747a9babb3bbc1b1f3cbd.16","title":"Old House Mesnička","lat":45.81374,"lng":15.970522,"ornamentId":"ap1"},{"guid":"7921fa687f87471082337f2ee1c46143.16","title":"Josip Račić spomen ploča","lat":45.812774,"lng":15.974247,"ornamentId":"ap1"},{"guid":"100c94b3d56a4ac19979859c0e6e2b46.16","title":"Veleposlanstvo Republike Turske","lat":45.80913,"lng":15.973066,"ornamentId":"ap1"},{"guid":"5674af95840b4410bc96516619c814d2.16","title":"Građevni Pas Pluto","lat":45.812228,"lng":15.97473,"ornamentId":"ap1"},{"guid":"84d39ad12cc8414f84d989982c5fda62.16","title":"Grounded Mercury","lat":45.81263,"lng":15.974477,"ornamentId":"ap1"},{"guid":"a8a2c290284a40bbb3d63bd55cc5a11a.16","title":"Hrvatska Gospodarska Komora","lat":45.808418,"lng":15.968614,"ornamentId":"ap1"},{"guid":"0669f315b77e43b4b68ae217e8540df8.16","title":"Ivan Gundulić Relief","lat":45.811978,"lng":15.972145,"ornamentId":"ap1"},{"guid":"6e6a5fe30c484e649ad8eff7241534f0.16","title":"Proud We Stand","lat":45.81099,"lng":15.974233,"ornamentId":"ap1"},{"guid":"22341d797b1548929cc4923db6b5e8b4.16","title":"Juraj Žerjavić Plaque","lat":45.8073,"lng":15.972152,"ornamentId":"ap1"},{"guid":"c526f93cf5e348a5a751b2be35f8d92a.16","title":"HASK Memorial Plaque","lat":45.808569,"lng":15.974735,"ornamentId":"ap1"},{"guid":"a498fa08a0a94a85a91af4726c6990ad.16","title":"Etnografski muzej","lat":45.808443,"lng":15.969126,"ornamentId":"ap1"},{"guid":"c45357cde15c4046a8c23f1cc2280d1a.16","title":"Saint","lat":45.811406,"lng":15.969828,"ornamentId":"ap1"},{"guid":"74bbd6fb4aa24cf6bd058813f1c4a526.16","title":"Braid my Lamp","lat":45.814155,"lng":15.97495,"ornamentId":"ap1"},{"guid":"9f8580f0718445dd8578f3e623c50e38.16","title":"Zagabria- Play Park","lat":45.814813,"lng":15.972648,"ornamentId":"ap1"},{"guid":"5414e5e623fb47d3a5455ecd874636d5.12","title":"A.G.Matoš Monument","lat":45.814242,"lng":15.974016,"ornamentId":"ap1"},{"guid":"7ddcd988844d43659bba7bf2b717b1be.16","title":"Stari Fijaker","lat":45.813924,"lng":15.970717,"ornamentId":"ap1"},{"guid":"d82be7d69d2d4c188bd4385444785a44.16","title":"Josip Kozarac Bust","lat":45.807473,"lng":15.96919,"ornamentId":"ap1"},{"guid":"ee4d808bc07a48b6ac25843f2e5771d3.16","title":"Grounded Earth","lat":45.811841,"lng":15.972731,"ornamentId":"ap1"},{"guid":"f2bc127cb5c54a0a97f9c5078ec1f377.16","title":"Satiričko kazalište Kerempuh","lat":45.812421,"lng":15.971084,"ornamentId":"ap1"},{"guid":"382af1989ff236979ac23111ab816032.16","title":"Bronze Age Tools","lat":45.814321,"lng":15.969797,"ornamentId":"ap1"},{"guid":"ee08564735db4f159c57df05dc579c94.16","title":"Bogoslav Šulek","lat":45.811133,"lng":15.974511,"ornamentId":"ap1"},{"guid":"c5f23022abf248be8bb4dd4e1b64d3de.16","title":"Marija Jambrišak Plaque","lat":45.807535,"lng":15.972678,"ornamentId":"ap1"},{"guid":"82eddebfe70947e3ba30b73c38f33a7a.16","title":"Crkva sv. Katarine","lat":45.814802,"lng":15.974149,"ornamentId":"ap1"},{"guid":"22fec264a40746039716e06532dc536f.16","title":"Sveta Marija","lat":45.81134,"lng":15.970616,"ornamentId":"ap1"},{"guid":"c044f1e02d3f49759ab1b46f818a3433.16","title":"Park Grič i Gradec 1","lat":45.814389,"lng":15.971524,"ornamentId":"ap1"},{"guid":"20a4427dae32378792b8ff6b4d17801a.16","title":"Bat on the wall","lat":45.813147,"lng":15.970941,"ornamentId":"ap1"},{"guid":"037b1d46b86e4171af7e4599535cf4a8.16","title":"Croatian Museum of School","lat":45.809212,"lng":15.97102,"ornamentId":"ap1"},{"guid":"59298e6b11344b5ea495f0fee341770a.16","title":"Oktogon","lat":45.812613,"lng":15.974932,"ornamentId":"ap1"},{"guid":"fc2eb01dd2124a5e8feafba1a8d66c1d.16","title":"Posta Varsavska","lat":45.81191,"lng":15.971791,"ornamentId":"ap1"},{"guid":"d3a06af73df84ac1bff80d7211ceb5b2.16","title":"Kazališni Sat","lat":45.808676,"lng":15.969037,"ornamentId":"ap1"},{"guid":"8bf24eef2e7244bdb29cf7bbe5d87ec8.16","title":"Creepy Statues","lat":45.813231,"lng":15.972335,"ornamentId":"ap1"},{"guid":"8ad41b2c397f4633b3578f65072e59b3.16","title":"Boy Statue","lat":45.814698,"lng":15.972444,"ornamentId":"ap1"},{"guid":"3c71fe9b68f2491d91739d2811310941.16","title":"Kino Metropol Memorial","lat":45.812519,"lng":15.973438,"ornamentId":"ap1"},{"guid":"ec300c77f7bf4e54bea80e34a373e201.12","title":"Well of Life","lat":45.810042,"lng":15.970014,"ornamentId":"ap1"},{"guid":"06d69847ac83416b99e56e32d8605c94.16","title":"Dragon, Devil And The Earth","lat":45.813437,"lng":15.974403,"ornamentId":"ap1"},{"guid":"c886873bbd604ff7b05cd0a97fd1e94f.16","title":"Dragutin Domjanić House","lat":45.809163,"lng":15.972239,"ornamentId":"ap1"},{"guid":"79f44de85b843c289650e8916b0fe76f.16","title":"Fox On The Box","lat":45.807724,"lng":15.973426,"ornamentId":"ap1"},{"guid":"11ccc641809546cd89319e0d40578c20.16","title":"Tunel Gric Entrance Mesnicka","lat":45.814858,"lng":15.971079,"ornamentId":"ap1"},{"guid":"1cf1f4b4ff594f26928552d3e1385267.16","title":"Park Grič I Gradec","lat":45.814492,"lng":15.972384,"ornamentId":"ap1"},{"guid":"b06e8bcb01be411f8cdfdb5d5a39127f.11","title":"Evangelička Luteranska Crkva","lat":45.809103,"lng":15.971823,"ornamentId":"ap1"},{"guid":"0bce2de9a5ab4e1a9e5c7c7bd91cd0cc.16","title":"Bird Of Life","lat":45.814208,"lng":15.972042,"ornamentId":"ap1"},{"guid":"76e8f591bc903987acda29ac4edee71d.16","title":"FD Dinamo Plaque","lat":45.808752,"lng":15.972092,"ornamentId":"ap1"},{"guid":"e12ffd6fb10a4d92800b10aeb0c04548.16","title":"Pravni Fakultet","lat":45.809678,"lng":15.971109,"ornamentId":"ap1"},{"guid":"5632c84a9f1244c0a2e5fd6f049c8479.16","title":"Akademija dramskih umjetnosti","lat":45.808731,"lng":15.97022,"ornamentId":"ap1"},{"guid":"a7ccd1d635354a6dbe001dcff2adde8d.16","title":"Two angels","lat":45.812182,"lng":15.969595,"ornamentId":"ap1"},{"guid":"bac90126f5d54b74afde4f9573d682fa.11","title":"Povijest Hrvata by Meštrović","lat":45.810497,"lng":15.969801,"ornamentId":"ap1"},{"guid":"1e24d32090c34ccf9f990e8718b4b86c.16","title":"Đuro Stjepan Deželić","lat":45.810182,"lng":15.968834,"ornamentId":"ap1"},{"guid":"af4ea198412c4694a4c162497954b791.16","title":"Playground Braće Mažuranić","lat":45.808094,"lng":15.969624,"ornamentId":"ap1"},{"guid":"079e427a27d0480a82391a22dd824060.16","title":"Tesla And Penkala","lat":45.814482,"lng":15.974692,"ornamentId":"ap1"},{"guid":"679e6e16008d4953b499d57ce6aeb11c.16","title":"Light Clock at HNK","lat":45.810135,"lng":15.970787,"ornamentId":"ap1"},{"guid":"f2b7cea7843f4c16b74ba4f1f92600ad.16","title":"Big Tooth","lat":45.812651,"lng":15.972245,"ornamentId":"ap1"},{"guid":"580a1818575441da9650e6f5bb36d49b.16","title":"Demetrus","lat":45.813124,"lng":15.97323,"ornamentId":"ap1"},{"guid":"343366f49ecb40fcbac5145f0aa45eaf.16","title":"Lado","lat":45.80844,"lng":15.970229,"ornamentId":"ap1"},{"guid":"034a5e52b22740d693c36b5d8c0afe82.16","title":"Kula Lotršćak","lat":45.814642,"lng":15.973382,"ornamentId":"ap1"},{"guid":"c0895537a7bd4cc490b673dd0c87823c.12","title":"Petar Preradović","lat":45.812297,"lng":15.974368,"ornamentId":"ap1"},{"guid":"8f28b20299c84cb39884d9e866f8b8a6.16","title":"HND","lat":45.807449,"lng":15.96844,"ornamentId":"ap1"},{"guid":"d6744d86801540f7b15938fc9b1c1de6.16","title":"Tiny Builders","lat":45.808266,"lng":15.968461,"ornamentId":"ap1"},{"guid":"e5e09d87490d48048a01db2706482b89.16","title":"Poseidon, Mercury And Bach","lat":45.812948,"lng":15.973899,"ornamentId":"ap1"},{"guid":"dd9b827ea18e4c4ab7948427da99b362.16","title":"Hrvatska zemaljska štedionica","lat":45.813136,"lng":15.971922,"ornamentId":"ap1"},{"guid":"e99cd8bcec50409a9d57784328649112.16","title":"Društvo Sveučilišnih Nastavnika","lat":45.808937,"lng":15.97372,"ornamentId":"ap1"},{"guid":"160c9bf1d9fa4a86bd7a4db70cade1a9.16","title":"Fallen journalists memorial","lat":45.807394,"lng":15.968078,"ornamentId":"ap1"},{"guid":"ec625a63dcf34e0e9de5a02d8c88865c.12","title":"Too Heavy! I need some help!","lat":45.813038,"lng":15.974871,"ornamentId":"ap1"},{"guid":"7156ea1842b44d37a83a44c978190fbf.16","title":"Memorial Board to City Entry","lat":45.814747,"lng":15.972956,"ornamentId":"ap1"},{"guid":"68ea3c7cfd2b4072ab2fc232fa3891a6.16","title":"Zagreb, I love You","lat":45.813017,"lng":15.97457,"ornamentId":"ap1"},{"guid":"78fb00f9d898433785db10fdccb10343.16","title":"Holding up building since 1898","lat":45.814347,"lng":15.970601,"ornamentId":"ap1"},{"guid":"3b21b974292e4bc18a6cfed6a1509a9c.16","title":"Muzej za umjetnost i obrt","lat":45.809457,"lng":15.968753,"ornamentId":"ap1"},{"guid":"a485436df06f4a80b80ee11829451009.16","title":"Museum of Broken Relationships","lat":45.81493,"lng":15.973654,"ornamentId":"ap1"},{"guid":"6646d3026f383049a8e5cddb54e17b6f.16","title":"Kamen spoticanja Lea Deutch","lat":45.809454,"lng":15.972255,"ornamentId":"ap1"},{"guid":"25f4c68627d74a779fa5913e230b08ad.16","title":"Gradski Komitet SKH Zagreb","lat":45.813421,"lng":15.969291,"ornamentId":"ap1"},{"guid":"ed2dfd2b293544808a4101a0a8464c81.16","title":"Thailand embassy","lat":45.810844,"lng":15.971988,"ornamentId":"ap1"},{"guid":"9584473e7ee64b96b86d8ebe8e087f89.16","title":"Filip Kaušić Plaque","lat":45.814909,"lng":15.9746,"ornamentId":"ap1"},{"guid":"f53e8e31b0444ca2bc60c917397a02de.16","title":"Lopašić","lat":45.809087,"lng":15.973884,"ornamentId":"ap1"},{"guid":"60cb1d3580a24cd59480f40c913796ca.16","title":"Crvena Kapica","lat":45.807294,"lng":15.97244,"ornamentId":"ap1"},{"guid":"c475d959e70e4e468cb98f1eb2fa5dfd.16","title":"Petar Zrinski House","lat":45.815055,"lng":15.97243,"ornamentId":"ap1"},{"guid":"bdd86160938e444db41b4ba2d1a97b4f.16","title":"La Torretta","lat":45.811947,"lng":15.973817,"ornamentId":"ap1"},{"guid":"e0b34207e8d347b8af4e79a8efa6541e.16","title":"Memorial 1979","lat":45.810391,"lng":15.974505,"ornamentId":"ap1"},{"guid":"fd1d6b8bb7cb4a54aca90b7745cfc3bd.16","title":"Zagreb county tourist office","lat":45.807867,"lng":15.974705,"ornamentId":"ap1"},{"guid":"db3812bff917421cb3087218556918c0.16","title":"Žena u Žerjavićevoj","lat":45.807345,"lng":15.97307,"ornamentId":"ap1"},{"guid":"505813180c7c47c5a84601bbbcabf5d3.16","title":"Likum Graffiti","lat":45.813507,"lng":15.969817,"ornamentId":"ap1"},{"guid":"1c3dca7df0de4c059be21f1ee92ee84a.16","title":"Akademija","lat":45.814769,"lng":15.973892,"ornamentId":"ap1"},{"guid":"1c289af6e8ca494e83d8a3824464aba2.11","title":"Croatian National Theater","lat":45.809737,"lng":15.970028,"ornamentId":"ap1"},{"guid":"200014c785e348d4976b805b98025981.16","title":"Art Park","lat":45.813879,"lng":15.97194,"ornamentId":"ap1"},{"guid":"0e1128d95dfc4b5c92c7fb39c7f6c254.11","title":"Stuck Here Reading Statue","lat":45.807567,"lng":15.967986,"ornamentId":"ap1"},{"guid":"325bba8522844e0681f47c89e2e398a7.16","title":"Laurel Child","lat":45.809634,"lng":15.97442,"ornamentId":"ap1"},{"guid":"5654d3b37ee74abea87cf348440c0b8c.12","title":"Saint George and the Dragon","lat":45.809099,"lng":15.969024,"ornamentId":"ap1"},{"guid":"1d6663f3ae8b4075bc3a1c658a4c4f24.16","title":"Stanko Vraz House","lat":45.818163,"lng":15.974755,"ornamentId":"ap1"},{"guid":"fe8ef3f946564613b99a6b4f0347a1e4.16","title":"Natural History Museum","lat":45.81714,"lng":15.972302,"ornamentId":"ap1"},{"guid":"72b615a539944f0181a143a1c8368558.16","title":"Narodni Dom","lat":45.817845,"lng":15.974797,"ornamentId":"ap1"},{"guid":"05ccc9ee50cc41a297aea267e2018c1f.16","title":"Woman Power","lat":45.817512,"lng":15.97493,"ornamentId":"ap1"},{"guid":"963c555bd3234b40a9411c1347d8542e.16","title":"Hrvatski povijesni muzej","lat":45.816007,"lng":15.972412,"ornamentId":"ap1"},{"guid":"b3ba8122c5f74d79a525c765d59b7b6a.16","title":"Museum portal","lat":45.817654,"lng":15.973354,"ornamentId":"ap1"},{"guid":"77c4dcd6cb2f4c9e8eb1fa0fb929c7b1.16","title":"Julije Klovic","lat":45.815176,"lng":15.974597,"ornamentId":"ap1"},{"guid":"cd59e56487da498b97dc019195a2f693.16","title":"Tituš Brezovački House","lat":45.816699,"lng":15.972206,"ornamentId":"ap1"},{"guid":"04b11ddec0613737ae21d9fb814b4085.16","title":"Josip Gostić","lat":45.815411,"lng":15.973744,"ornamentId":"ap1"},{"guid":"6f27df526dd94ffe85ffac0f055aba1d.16","title":"Shine Bright Like a Diamond","lat":45.816164,"lng":15.974013,"ornamentId":"ap1"},{"guid":"c762ee2072f34adda95e55d83b24829e.16","title":"Hrvatsko Tipografsko Društvo","lat":45.817181,"lng":15.974599,"ornamentId":"ap1"},{"guid":"03442fdfbc3a489abc0dbd40282300f4.11","title":"Crkva Svetog Marka","lat":45.816274,"lng":15.973587,"ornamentId":"ap1"},{"guid":"7f7dd7f23c804a45bc7aee3dd1d166fe.16","title":"Ljudevit Vukotinović Birth House","lat":45.817442,"lng":15.973369,"ornamentId":"ap1"},{"guid":"503971ef66f94f16be83bde006737dcb.16","title":"Mijo Kovacic Gallery","lat":45.817754,"lng":15.97418,"ornamentId":"ap1"},{"guid":"b4307df53ab2442f9fd012a57b9f025f.16","title":"Gornjogradska Vijećnica","lat":45.815718,"lng":15.973433,"ornamentId":"ap1"},{"guid":"9fd179447e034dd5b983e460731bdbe5.16","title":"Crkva sv. Cirila i Metoda","lat":45.815129,"lng":15.973337,"ornamentId":"ap1"},{"guid":"61e0030d771d41c1b42f532bcdaa361e.16","title":"Tadija Smičiklas Memorial Plaque","lat":45.81603,"lng":15.971583,"ornamentId":"ap1"},{"guid":"cb1e0974e325406485a6683818fea9a3.16","title":"Stara Gradska Pivovara","lat":45.816863,"lng":15.974239,"ornamentId":"ap1"},{"guid":"303677999b0949c6a29de594513ed686.16","title":"August Senoa Bust","lat":45.81879,"lng":15.974726,"ornamentId":"ap1"},{"guid":"54861b6c64e14834a42e630b74965e11.16","title":"Plemićki Konvikt","lat":45.81561,"lng":15.974677,"ornamentId":"ap1"},{"guid":"4a4a0cf7dea248668726b7dd41aa6738.16","title":"Galerija 11","lat":45.815805,"lng":15.974282,"ornamentId":"ap1"},{"guid":"a5f992d27c314bb48d9050463c7f9b45.16","title":"Spomen Ploca Ivanu Sotlešegu","lat":45.819278,"lng":15.974698,"ornamentId":"ap1"},{"guid":"04b12c67aa8d4be0aebaf3f80d33c3a3.12","title":"Matija Gubec","lat":45.815932,"lng":15.973588,"ornamentId":"ap1"},{"guid":"09a4744270e44c0b98ff2dea29e9f3cf.16","title":"Hrvatska Državna Tiskara","lat":45.816624,"lng":15.974192,"ornamentId":"ap1"},{"guid":"34d826771bbe42dca392fbb96b37f250.16","title":"Saint All Around","lat":45.816788,"lng":15.973158,"ornamentId":"ap1"},{"guid":"1f17f2b09a5045a68177cd1c8511f071.16","title":"Hrvatski Sabor","lat":45.816448,"lng":15.974057,"ornamentId":"ap1"},{"guid":"146216d5cc9f4ce48a3b2a52ba26e1ae.16","title":"Little House At Illirs Square","lat":45.81845,"lng":15.973924,"ornamentId":"ap1"},{"guid":"39606eafce2a4a83b469ec62d740871b.16","title":"Ustavni sud Zagreb","lat":45.816686,"lng":15.973716,"ornamentId":"ap1"},{"guid":"0ab6c4f5a05c47b5a14d83c53b82f982.16","title":"Muzej Grada Zagreba","lat":45.818409,"lng":15.974711,"ornamentId":"ap1"},{"guid":"ef0b06696c364db5b883d58b690ee518.16","title":"Croatian Museum of Naive Art","lat":45.815349,"lng":15.973348,"ornamentId":"ap1"},{"guid":"7e416265b9e24aa7a35c6683bbf688ac.16","title":"Kovnica Novca","lat":45.815935,"lng":15.973871,"ornamentId":"ap1"},{"guid":"f68824b6f38b469b8f35398cbd5d12e7.16","title":"Najstariji grb grada Zagreba","lat":45.816496,"lng":15.973085,"ornamentId":"ap1"},{"guid":"11b6f548f8dc3998af1d14cc016ebfc4.16","title":"CO2 hand","lat":45.818799,"lng":15.974277,"ornamentId":"ap1"},{"guid":"41ab99c0e96748b19717aac24da55808.16","title":"Opći Poslovi","lat":45.816663,"lng":15.974909,"ornamentId":"ap1"},{"guid":"9d08cd2e75f54099af1b64a1d3e9a39a.16","title":"Banski dvori","lat":45.816235,"lng":15.973258,"ornamentId":"ap1"},{"guid":"cd3c254395ca457a861dedc65465d91e.16","title":"August Šenoa House","lat":45.816235,"lng":15.971886,"ornamentId":"ap1"},{"guid":"5dffcd45808042568650b816632c3d06.16","title":"Atelijer Meštrović","lat":45.816944,"lng":15.973312,"ornamentId":"ap1"},{"guid":"be4e988267a94643b60b201182e6c649.16","title":"Vechnickha Vulicza","lat":45.815601,"lng":15.972428,"ornamentId":"ap1"},{"guid":"9cb7a6c7adaf482686fa16b29fb8dc7b.12","title":"Jezuitski Trg","lat":45.815228,"lng":15.974298,"ornamentId":"ap1"},{"guid":"490e3e58847435ef9b8707bc027e024e.16","title":"Milka Trnina house","lat":45.817426,"lng":15.972886,"ornamentId":"ap1"},{"guid":"13f5ec22792a4b6e8f67e80f3a7a83f7.16","title":"Pošta Basaričekova (kod Šafraneka)","lat":45.817577,"lng":15.974073,"ornamentId":"ap1"},{"guid":"e1f8b7355a9e4990bb331278618e8e21.16","title":"K Crnom Orlu","lat":45.815766,"lng":15.974826,"ornamentId":"ap1"},{"guid":"436e908aa12446e9afeaed89c144700e.16","title":"Fabijan Šovagović Memorial Plaque","lat":45.815275,"lng":15.971203,"ornamentId":"ap1"}]}