{"portals":[{"guid":"8a6098bb13174e8b8187a117ff77f3e8.16","title":"Escultura Gulbenkian","lat":38.7367,"lng":-9.154718,"ornamentId":"ap1"},{"guid":"0da4289be4023ac09c947084b6a30bf1.16","title":"Painel Informativo JF das Avenidas Novas -  R. Júlio Dinis","lat":38.742109,"lng":-9.148387,"ornamentId":"ap1"},{"guid":"cda08a234efa3973b7c0bbbb58d20cc2.16","title":"Matchbox Crossfit","lat":38.73889,"lng":-9.15629,"ornamentId":"ap1"},{"guid":"e215a17b52f4431eaaccfb003ccdacda.16","title":"Montes e Céus","lat":38.741228,"lng":-9.150264,"ornamentId":"ap1"},{"guid":"3bf3e6a2728b3a4d87961c9c84362d87.16","title":"Mapa da Gulbenkian","lat":38.737651,"lng":-9.155104,"ornamentId":"ap1"},{"guid":"4f8956692cab336b8dfdf7515ed00071.16","title":"Underground Gallery 40 - Galeria de Arte","lat":38.735595,"lng":-9.147242,"ornamentId":"ap1"},{"guid":"e0bdbe2a3c4c4677b8bd78e544c01db0.16","title":"Faculdade de Ciências Sociais e Humanas","lat":38.740018,"lng":-9.151294,"ornamentId":"ap1"},{"guid":"f0cf478948af4ccdb506baecfd6500c7.16","title":"Junta de Freguesia de Nossa Senhora de Fátima","lat":38.740126,"lng":-9.150172,"ornamentId":"ap1"},{"guid":"8084733455d949d59302542a364c296e.16","title":"Edifício Caravela","lat":38.738131,"lng":-9.146379,"ornamentId":"ap1"},{"guid":"25eb1d34f5ac37be9a7ebf3fde7e1722.16","title":"Água, Vida, Liberdade by Daniela Guerreiro","lat":38.742049,"lng":-9.150452,"ornamentId":"ap1"},{"guid":"081a2c97a9c347fda37a3a19777d6a5b.16","title":"Parque Infantil da Av. Marquês de Tomar","lat":38.738999,"lng":-9.150756,"ornamentId":"ap1"},{"guid":"5c40647b7e714dcbad356cc6fc4a3e00.16","title":"The Vase in Campo Pequeno","lat":38.74132,"lng":-9.147566,"ornamentId":"ap1"},{"guid":"09beb7fa38f0407b8d2aa93a10c07eb8.16","title":"\"O Mundo\" - Maria Irene Vilar","lat":38.73634,"lng":-9.153405,"ornamentId":"ap1"},{"guid":"04992ade2d7e4f55aef021132977c6b3.16","title":"Marco de Correio Silva Teles","lat":38.738841,"lng":-9.154843,"ornamentId":"ap1"},{"guid":"0f9047c036534855ab036a61ed987122.16","title":"Quote Bronze Norte","lat":38.737717,"lng":-9.154785,"ornamentId":"ap1"},{"guid":"622745474f104bb58370d250fb987d9a.16","title":"Federação Portuguesa de Esgrima","lat":38.739557,"lng":-9.1516,"ornamentId":"ap1"},{"guid":"761b1f4dbe854411908611f0848c973b.11","title":"Escultura para Espaço Urbano I","lat":38.738028,"lng":-9.152358,"ornamentId":"ap1"},{"guid":"cf0a45b237e542f1a178653eeaafd0bd.16","title":"Oh! Lacerda - Lojas com História","lat":38.738866,"lng":-9.153822,"ornamentId":"ap1"},{"guid":"64b521a88c7e43afa1dd204e6a46dcde.16","title":"Nossa Senhora da Conceição do Rêgo","lat":38.739596,"lng":-9.153724,"ornamentId":"ap1"},{"guid":"6eb232e7421646d5ba17e087003cf09b.16","title":"Embaixada de São Tomé e Príncipe","lat":38.734925,"lng":-9.147474,"ornamentId":"ap1"},{"guid":"0276a3d1e5424a8bb7589adbab442b4c.16","title":"Bailarina - Plie","lat":38.742846,"lng":-9.148907,"ornamentId":"ap1"},{"guid":"c2698f86554a4b27bd3d5d4b471cc017.16","title":"Homenagem da CM de Lisboa a Lúcio de Azevedo","lat":38.741039,"lng":-9.148001,"ornamentId":"ap1"},{"guid":"5657aef6cd0b44948c725ebabee179c2.16","title":"Quiosque Turismo Lisboa - Campo Pequeno","lat":38.742527,"lng":-9.146496,"ornamentId":"ap1"},{"guid":"75923177dcbb3328ab4f8ae12b1c8cf4.16","title":"3D Fun Art Museum","lat":38.736703,"lng":-9.148809,"ornamentId":"ap1"},{"guid":"df8902bec72d35f1aa93496c80a3f49c.16","title":"Igreja Batista Renascer","lat":38.735206,"lng":-9.150641,"ornamentId":"ap1"},{"guid":"b364d0b712ca493fbcf73b6fcdf54f94.16","title":"Lugares de Abril - Rádio Emissores Associados de Lisboa","lat":38.738628,"lng":-9.150347,"ornamentId":"ap1"},{"guid":"f6bd2a860e59433493c9b8ed39c85517.16","title":"Núcleo Citadino","lat":38.738191,"lng":-9.155784,"ornamentId":"ap1"},{"guid":"8def6c5754784368b79b38b87ef38287.16","title":"Estação de Metro de São Sebastião - Av. Duque de Ávila","lat":38.735068,"lng":-9.150811,"ornamentId":"ap1"},{"guid":"620b952ee4ce4ffa903f658de705be09.16","title":"Edifício Sede da Fundação Calouste Gulbenkian","lat":38.73758,"lng":-9.154483,"ornamentId":"ap1"},{"guid":"b92130f568f73fb48c52262abc9a03fa.16","title":"Underwater by Tiago Gaio","lat":38.741715,"lng":-9.150132,"ornamentId":"ap1"},{"guid":"de387c9495fa4678a2d23110f5476d82.16","title":"Cruz de Azulejos","lat":38.740811,"lng":-9.153554,"ornamentId":"ap1"},{"guid":"d6d59346fa6f4fe1b6b8c7b0399c6d9d.16","title":"Partida de Vasco da Gama para a Índia","lat":38.73759,"lng":-9.14691,"ornamentId":"ap1"},{"guid":"af1f66c241343b7fbfd75ea3282990c2.16","title":"O Brilhante Futuro da Cana de Açúcar","lat":38.737134,"lng":-9.155393,"ornamentId":"ap1"},{"guid":"c8464e5a86e636ce860db730e733e933.16","title":"Painel Escultórico","lat":38.737356,"lng":-9.154428,"ornamentId":"ap1"},{"guid":"a65314436ae44b9996ee3acc03100f53.16","title":"Loja CTT","lat":38.740235,"lng":-9.148327,"ornamentId":"ap1"},{"guid":"eb22040bcb2f485e8f89975d1b96ad39.16","title":"Centro Comercial Apolo 70","lat":38.742241,"lng":-9.148099,"ornamentId":"ap1"},{"guid":"44cdf920bec33a42bc9f76f74d634969.16","title":"Baby Shark by Catarina Glam","lat":38.74272,"lng":-9.151036,"ornamentId":"ap1"},{"guid":"be89aacab4093d988b9fb4eeaa445a27.16","title":"Games of the West","lat":38.738096,"lng":-9.149941,"ornamentId":"ap1"},{"guid":"f89cf6a9e1504c5c833914e9b45fc93d.16","title":"Defense Tower","lat":38.73518,"lng":-9.152266,"ornamentId":"ap1"},{"guid":"8faa45a54886339f8fdb0bf2d8be1c81.16","title":"Artemis Gallery Lisbon - Galeria de Arte","lat":38.735717,"lng":-9.150451,"ornamentId":"ap1"},{"guid":"3ad36ee1b8f24ea78c6a021b4166adf8.16","title":"Torrinha","lat":38.739869,"lng":-9.150629,"ornamentId":"ap1"},{"guid":"2d9e8a1610754d9992e049c55758fda5.16","title":"Xmas Party Box","lat":38.74062,"lng":-9.155398,"ornamentId":"ap1"},{"guid":"2644fbac59c84d3aaad21b00c2d0293b.16","title":"ISCAL - Instituto Superior de Contabilidade e Administração de Lisboa","lat":38.737186,"lng":-9.146765,"ornamentId":"ap1"},{"guid":"1b9ef61585b749bd9c06227df9c85f32.16","title":"Bebidas Finas Café","lat":38.737872,"lng":-9.147821,"ornamentId":"ap1"},{"guid":"92afc76a2ffc459c9823cb1643de59b9.16","title":"Azulejos Florais em Fachada","lat":38.739059,"lng":-9.147065,"ornamentId":"ap1"},{"guid":"9508052c7b484aa0b9c81e81a1a64729.16","title":"Castelo do Olho III","lat":38.735594,"lng":-9.15412,"ornamentId":"ap1"},{"guid":"19346aa730bc4845ba1f9358e13f1038.16","title":"Twisted","lat":38.73679,"lng":-9.152607,"ornamentId":"ap1"},{"guid":"ca8183371f1f351fae42c63cf4884bf1.16","title":"Começar - Almada Negreiros","lat":38.737374,"lng":-9.154684,"ornamentId":"ap1"},{"guid":"dd1e35e4f8af460ba4d3369606999a4b.16","title":"Estátua, Jardim Gulbenkian","lat":38.736502,"lng":-9.153764,"ornamentId":"ap1"},{"guid":"e499fe911dcc3ecabb897c6c3a33a3bf.16","title":"Ponto Gira 426 - Elias Garcia","lat":38.73912,"lng":-9.148003,"ornamentId":"ap1"},{"guid":"6032778b69c142eabba250f9bf93f20c.16","title":"Anfiteatro da Gulbenkian","lat":38.736198,"lng":-9.15397,"ornamentId":"ap1"},{"guid":"538e8efdbb9931e0a0dad5432ecd1477.16","title":"Fases do Peixe Lua","lat":38.742398,"lng":-9.150774,"ornamentId":"ap1"},{"guid":"d1becf5032333ddf8d654dd123f02430.16","title":"Entrada Oeste da Gulbenkian","lat":38.736011,"lng":-9.154831,"ornamentId":"ap1"},{"guid":"f055d66a4a9f4a2d9204e956a3161439.16","title":"Parque de Manutenção Valbom","lat":38.735247,"lng":-9.148477,"ornamentId":"ap1"},{"guid":"8ef58f4b57f345e5abc93fff4ea05d33.16","title":"Mapa Norte do Jardim Gulbenkian","lat":38.738194,"lng":-9.154537,"ornamentId":"ap1"},{"guid":"2e8dbe3e06c83623ae2745f0bb4a4a13.16","title":"Associação de comandos - Escudo e Bandeira","lat":38.735237,"lng":-9.151819,"ornamentId":"ap1"},{"guid":"8c6874edf49a43c8a081c3e9534ac8c7.16","title":"Laurentina - Lojas com História","lat":38.737133,"lng":-9.151277,"ornamentId":"ap1"},{"guid":"5351f2c7f6e24abf9562bd5dff99b2c6.16","title":"Biblioteca de Arte Calouste Gulbenkian","lat":38.737553,"lng":-9.153329,"ornamentId":"ap1"},{"guid":"4ec3537c4f014f57a38cc94bd3ba4d1f.16","title":"Depósito de Água do Hospital Curry Cabral","lat":38.739825,"lng":-9.153216,"ornamentId":"ap1"},{"guid":"fdca10b1e91e371aa6880748674ce9f8.16","title":"Vaso Ornamental em Mármore","lat":38.734893,"lng":-9.149031,"ornamentId":"ap1"},{"guid":"a70842ffedc03d46a4422dfe78e37f90.16","title":"Cardume","lat":38.741365,"lng":-9.150101,"ornamentId":"ap1"},{"guid":"f56069ed595147e2ae730bf043d92c33.16","title":"Nu Feminino - António Duarte","lat":38.736734,"lng":-9.153065,"ornamentId":"ap1"},{"guid":"ecad80355afe3606b99e84d67f84f3c7.16","title":"Parque Canino - Jardim Amália Carvalheira","lat":38.739229,"lng":-9.150865,"ornamentId":"ap1"},{"guid":"3af882e32b0a4090a9279898c6ab0db8.16","title":"Baixo-Relevo - Vitor Fortes","lat":38.73704,"lng":-9.154543,"ornamentId":"ap1"},{"guid":"a324c2dac1dd4ea4a4733e9f066fa92f.16","title":"Fachada Abstracta em azulejo","lat":38.735483,"lng":-9.154688,"ornamentId":"ap1"},{"guid":"61cfe605ac194d9582d8e552224fa282.16","title":"Escultura Modernista Onna-musha","lat":38.737345,"lng":-9.147674,"ornamentId":"ap1"},{"guid":"6f712f8a5a6d4945b8c896c9e8a39d8e.16","title":"Instituto da Segurança Social","lat":38.741016,"lng":-9.148956,"ornamentId":"ap1"},{"guid":"1171196d7ce044ab8110a819f2e3b71a.16","title":"Ponto Gira - Conde Valbom","lat":38.737707,"lng":-9.151837,"ornamentId":"ap1"},{"guid":"12869a45104b405d8588ec781c5ec23b.16","title":"Edifício Art Déco","lat":38.73982,"lng":-9.149227,"ornamentId":"ap1"},{"guid":"9c54d5cdcee447d6995934b8523ba218.16","title":"Museu Calouste Gulbenkian","lat":38.735916,"lng":-9.154201,"ornamentId":"ap1"},{"guid":"0b9d5619ed113ec0b84583993ca043e4.16","title":"Ponto Gira 428 - Avenida da República","lat":38.740479,"lng":-9.146737,"ornamentId":"ap1"},{"guid":"7a01da8888484d278c2f00acf24052e9.16","title":"Cone de Revolução","lat":38.736933,"lng":-9.150544,"ornamentId":"ap1"},{"guid":"9dcafbb2fc7349d396798a35a6513f43.16","title":"The Strange Statue","lat":38.741023,"lng":-9.150191,"ornamentId":"ap1"},{"guid":"e9cb002b4da24c8f938a028d640dfba0.16","title":"White Pillars","lat":38.735355,"lng":-9.148569,"ornamentId":"ap1"},{"guid":"b9a28be2886f4ad4a602ba4200da73bc.16","title":"Conto de Fadas","lat":38.736632,"lng":-9.152259,"ornamentId":"ap1"},{"guid":"e1f2e67e1a014c74a7b49a2f2b1efc27.16","title":"Marco de Correio Antigo","lat":38.740074,"lng":-9.153976,"ornamentId":"ap1"},{"guid":"5ad41da1067040cc919abc49154c9fab.16","title":"Fundação Calouste Gulbenkian","lat":38.737059,"lng":-9.155893,"ornamentId":"ap1"},{"guid":"94460866888240b3bb1f8b2d8985bd87.16","title":"Entrada Este da Gulbenkian","lat":38.737235,"lng":-9.152528,"ornamentId":"ap1"},{"guid":"a69dee625de63cecbf45fe886b793aeb.16","title":"Os Cogumelos","lat":38.739822,"lng":-9.148588,"ornamentId":"ap1"},{"guid":"e638a2f0118c48c4b2ad98b552716cab.16","title":"Quote Bronze - “Ondas”","lat":38.736887,"lng":-9.15329,"ornamentId":"ap1"},{"guid":"bd96a8445b9e38b69e66c987ea8fb2e2.16","title":"Centro Comercial Arco Íris","lat":38.742273,"lng":-9.147863,"ornamentId":"ap1"},{"guid":"e320dc2912044101b1bf2aec775f674a.16","title":"Die Trauer (A Dor) - Hein Semke","lat":38.735873,"lng":-9.153803,"ornamentId":"ap1"},{"guid":"ecf8fdc202614ee9b54a316af2ef8548.11","title":"Deconstructed Statue","lat":38.738548,"lng":-9.153407,"ornamentId":"ap1"},{"guid":"90a3a50bb66a3830abc4c557ebe792b8.16","title":"Mapa Noroeste do Jardim Gulbenkian","lat":38.737031,"lng":-9.155633,"ornamentId":"ap1"},{"guid":"ffb49620d2843602b9c2759d18f170ea.16","title":"Homenagem a Fernando Piteira Santos","lat":38.738576,"lng":-9.156008,"ornamentId":"ap1"},{"guid":"28f9f7b80437497f84fcf3273523b273.16","title":"Academia Kolmachine","lat":38.735724,"lng":-9.149869,"ornamentId":"ap1"},{"guid":"ce416353796d401db66c884ab20fd2c0.16","title":"Painel Informativo - Av. Conde Valbom","lat":38.737868,"lng":-9.152094,"ornamentId":"ap1"},{"guid":"b33cc8e57546437889bf6339b32a189f.16","title":"Junta de Freguesia das Avenidas Novas","lat":38.741147,"lng":-9.147034,"ornamentId":"ap1"},{"guid":"b01a3d71e7ad48fa93f539cc9bedb79e.16","title":"Satyricon I - Reuben Nakian","lat":38.736478,"lng":-9.153023,"ornamentId":"ap1"},{"guid":"f9d344b2d2f14bf1a6d278edf581b720.16","title":"Edifício de 1923","lat":38.738868,"lng":-9.149821,"ornamentId":"ap1"},{"guid":"331c891886ec4a6c9036cdb8f1ccd158.11","title":"Estátua de Calouste Gulbenkian","lat":38.737379,"lng":-9.155844,"ornamentId":"ap1"},{"guid":"df1af3980850320d8d59ba95965144a4.16","title":"Lisboa em Azulejo - Viúva Lamego","lat":38.735991,"lng":-9.148801,"ornamentId":"ap1"},{"guid":"942298dc8cc545de8239ba870a24c6d6.16","title":"Castle of the Eye I","lat":38.736049,"lng":-9.15403,"ornamentId":"ap1"},{"guid":"c778943da76c3163b3dd5c7f1d13850e.16","title":"Mapa Oeste do Jardim Gulbenkian","lat":38.736095,"lng":-9.154622,"ornamentId":"ap1"},{"guid":"4fc4df5d77084543b8f9e232ffaa6a0d.16","title":"Delegação Económica e Comercial de Macau","lat":38.739416,"lng":-9.14849,"ornamentId":"ap1"},{"guid":"bbbc3bffe43d40cfa2ceaa4e71029e0a.16","title":"Saint","lat":38.739629,"lng":-9.150488,"ornamentId":"ap1"},{"guid":"9345c7f180b94f07bf589e012ebf43f4.16","title":"Estação Gira 414 - Duque de Ávila / Pinheiro Chagas","lat":38.735085,"lng":-9.151397,"ornamentId":"ap1"},{"guid":"b2da7a477d3d40189f9611e87c08b445.16","title":"Jardim Amélia Carvalheira","lat":38.739338,"lng":-9.150296,"ornamentId":"ap1"},{"guid":"0b71870b099c46099a15411e741dcbe5.16","title":"Embaixada da República da Coreia","lat":38.737169,"lng":-9.147398,"ornamentId":"ap1"},{"guid":"52b053042117345e86ee749a974b8ba8.16","title":"Consulado do Nepal","lat":38.736363,"lng":-9.150816,"ornamentId":"ap1"},{"guid":"3a3a8e0425b44519aaf2e9a6e4c2d54b.16","title":"Moradia António Bravo","lat":38.743027,"lng":-9.149433,"ornamentId":"ap1"},{"guid":"a14c4764b96d41b998be7d08ed9478ef.16","title":"Turismo de Portugal","lat":38.742059,"lng":-9.150191,"ornamentId":"ap1"},{"guid":"379f6d8624663d1185e5cd14ad774b8d.16","title":"O CAM Sai à Rua","lat":38.738391,"lng":-9.153762,"ornamentId":"ap1"},{"guid":"24d3832d983f44a69d0a7c7925495a2d.16","title":"Painel Informativo - Av. Elias Garcia","lat":38.738597,"lng":-9.150019,"ornamentId":"ap1"},{"guid":"3d10012eea3537b286765081dd2ccc5e.16","title":"Galeria Resistência","lat":38.73857,"lng":-9.154611,"ornamentId":"ap1"},{"guid":"494253ac14924c61a5b072986e77a65f.16","title":"Prémio Valmor 1923 de Arquitectura de Lisboa","lat":38.738615,"lng":-9.146389,"ornamentId":"ap1"},{"guid":"d47ece5e7f583badab124ba460b793be.16","title":"Centro Interpretativo do Jardim","lat":38.736276,"lng":-9.153184,"ornamentId":"ap1"},{"guid":"c770e079af124fa88d4ae1c88b6c7f10.16","title":"O Globo","lat":38.739119,"lng":-9.146522,"ornamentId":"ap1"},{"guid":"62a9d9c8ac5740e7b1c05612c458b744.16","title":"Jardim dos Espelhos d’Água","lat":38.73653,"lng":-9.155303,"ornamentId":"ap1"},{"guid":"1b4babca30983f7f945ba27a24807b3d.16","title":"Fish Band by Gonçalo Mar","lat":38.742248,"lng":-9.150632,"ornamentId":"ap1"},{"guid":"9f10e4a06dce3df7acd5147706ac92d0.16","title":"Lago Circular","lat":38.735332,"lng":-9.15293,"ornamentId":"ap1"},{"guid":"9d097725dd0d3d45b30f0708f3533157.16","title":"Mapa Este do Jardim Gulbenkian","lat":38.737623,"lng":-9.152743,"ornamentId":"ap1"},{"guid":"c8bfe025c985358fac0a01b484e3a52b.16","title":"Tapeçarias Partida de Emigrantes","lat":38.737327,"lng":-9.154098,"ornamentId":"ap1"},{"guid":"4d5a1c6dd6393e759f6e9f632a4e678d.16","title":"Ginásio Action Black","lat":38.735726,"lng":-9.154616,"ornamentId":"ap1"},{"guid":"9e8906086841467594a54690a581a46a.16","title":"Parque Infantil Duque d’Ávila","lat":38.73521,"lng":-9.148635,"ornamentId":"ap1"},{"guid":"8901c2834d2147a493b7e682bee98b36.16","title":"Inspirational quote","lat":38.736598,"lng":-9.152726,"ornamentId":"ap1"},{"guid":"57e759ac8b073f38a831a6dee512937b.16","title":"Marco dos CTT - Avenida de Berna","lat":38.740129,"lng":-9.151034,"ornamentId":"ap1"},{"guid":"d3456962352c47d2a42541b54590b7d9.16","title":"Mundo às Costas","lat":38.737618,"lng":-9.147765,"ornamentId":"ap1"},{"guid":"c4237d602b6f45239ae329cbe0372445.16","title":"Associação Guias de Portugal","lat":38.73649,"lng":-9.151488,"ornamentId":"ap1"},{"guid":"cd59fd5811e2374caefd2b767b2ece02.16","title":"Mircea Eliade","lat":38.738544,"lng":-9.150661,"ornamentId":"ap1"},{"guid":"3a933812af794398ad08503d9ff5e577.16","title":"Trustees Medal","lat":38.735872,"lng":-9.153516,"ornamentId":"ap1"},{"guid":"5483bd785d7a4fcea2bdf86c55f2b1bd.16","title":"Placar Informativo da Avenida Santos Dumont","lat":38.739883,"lng":-9.155887,"ornamentId":"ap1"},{"guid":"c50a8c05ad1744bfa2c3d9090386d827.16","title":"Capitão Salgueiro Maia","lat":38.740406,"lng":-9.150423,"ornamentId":"ap1"},{"guid":"880ad42b94bf49c3a9cec1b359006944.16","title":"Religious Symbols","lat":38.739716,"lng":-9.150358,"ornamentId":"ap1"},{"guid":"751acbf3f8ea431896995d0e02f0841c.16","title":"Madames da República","lat":38.740499,"lng":-9.146251,"ornamentId":"ap1"},{"guid":"a732f876f310496caecc0dfd9862e34d.16","title":"Grande Auditório - Fundação Calouste Gulbenkian","lat":38.736928,"lng":-9.154017,"ornamentId":"ap1"},{"guid":"1705c43c4f64455c880cdb4d7e584818.16","title":"Painel de Azulejos - O Busto","lat":38.739002,"lng":-9.149002,"ornamentId":"ap1"},{"guid":"f1c95b9af8e542919d430275c4cc5c9d.16","title":"Painel Informativo JF Avenidas Novas Av. Duque de Ávila","lat":38.735087,"lng":-9.148857,"ornamentId":"ap1"},{"guid":"3128be4ce0c939d3b83ab07c58e062c9.16","title":"Profundezas by Godmess","lat":38.741864,"lng":-9.15027,"ornamentId":"ap1"},{"guid":"f4590c2bec3f4cc2b4c1dae9b048ff05.16","title":"Museu Calouste Gulbenkian - História","lat":38.738048,"lng":-9.154909,"ornamentId":"ap1"},{"guid":"cb11c1d74b0a4608b4be5cb38d4e94aa.16","title":"Centro de Arte Moderna","lat":38.735574,"lng":-9.154176,"ornamentId":"ap1"},{"guid":"bdf552d80a6a3401b352ac56d9b502a9.16","title":"Escultura Quote Bronze Este","lat":38.736939,"lng":-9.153408,"ornamentId":"ap1"},{"guid":"b652e6f1b47e3ad88212e47fc1721ee5.16","title":"Vitoria Nobre Arte - Boxing Club","lat":38.739442,"lng":-9.15625,"ornamentId":"ap1"},{"guid":"569f7a67ea9748f79547531f99fc8a35.16","title":"Brasão Quinhentista","lat":38.740049,"lng":-9.153984,"ornamentId":"ap1"},{"guid":"919b984a2b574462a2a371173207807a.16","title":"Jardim Marquês de Marialva","lat":38.742018,"lng":-9.146409,"ornamentId":"ap1"},{"guid":"54f6d143d6a238f7bd67754107c2c86b.16","title":"Em Abril, Cravos Mil","lat":38.740382,"lng":-9.150717,"ornamentId":"ap1"},{"guid":"d455ba4bd7f04174b286a36cc33c6e4f.11","title":"No Head Statue","lat":38.735937,"lng":-9.149625,"ornamentId":"ap1"},{"guid":"059cc0139fab497e96383d61f8518443.16","title":"Retrato de Alfredo Pimenta","lat":38.73746,"lng":-9.153229,"ornamentId":"ap1"},{"guid":"2099d99a9603434e8dd037fcd2b919d4.16","title":"Festa Brava - Francisco Simões, 1994","lat":38.741486,"lng":-9.147014,"ornamentId":"ap1"},{"guid":"1944e6e6986a38849621c5f1d671de72.16","title":"Associação das Universidades de Língua Portuguesa: AULP","lat":38.739269,"lng":-9.15662,"ornamentId":"ap1"},{"guid":"1d6e4895c7994e458e1dd0de05e095ff.16","title":"Torre Gulbenkian","lat":38.735365,"lng":-9.153644,"ornamentId":"ap1"},{"guid":"fc7397aff71f4f07b90bfa46421375c8.16","title":"Igreja da Azinhaga","lat":38.741366,"lng":-9.153552,"ornamentId":"ap1"},{"guid":"efcd7a4c69e433afa3b721c50b973919.16","title":"Finding Emo by Malibu Ninjas","lat":38.74256,"lng":-9.150912,"ornamentId":"ap1"},{"guid":"6cc03469ae0930769c0dc78d967849ea.16","title":"Algas by Arashida","lat":38.741538,"lng":-9.149999,"ornamentId":"ap1"},{"guid":"69b90d988bf344a8a5b3349490707291.16","title":"Artista e Modelo","lat":38.73669,"lng":-9.154283,"ornamentId":"ap1"},{"guid":"67ca624912b64ae9a0e4d32e35aa1d44.16","title":"Salão do Reino das Testemunhas de Jeová","lat":38.737253,"lng":-9.149687,"ornamentId":"ap1"},{"guid":"b7a0d2dd8acb478e951849ac52ecd595.16","title":"Fortress - Arrow Defence","lat":38.735896,"lng":-9.152385,"ornamentId":"ap1"},{"guid":"cb72568b1ba239a9a45c6c4be7d62686.16","title":"Arcadas","lat":38.735788,"lng":-9.152679,"ornamentId":"ap1"},{"guid":"a74826a3dbfa4af2afe5db7b71d5725f.16","title":"Half Bear","lat":38.738229,"lng":-9.153941,"ornamentId":"ap1"},{"guid":"ef2ad00ec81146cdaf537deab4e16d55.16","title":"Apolo","lat":38.738023,"lng":-9.153989,"ornamentId":"ap1"},{"guid":"fc467d3f57e7493fb026535d09fcbb26.16","title":"Centro Interpretativo Gonçalo Ribeiro Teles","lat":38.737196,"lng":-9.152849,"ornamentId":"ap1"},{"guid":"5bba3e86973a45bda088f10f505728af.11","title":"Museu de Gulbenkian","lat":38.73779,"lng":-9.154034,"ornamentId":"ap1"},{"guid":"7c186326d94e4eae8e4ee2ac390e60f3.16","title":"Marcos de Correio - Rua Marquês Sá da Bandeira","lat":38.735344,"lng":-9.152073,"ornamentId":"ap1"},{"guid":"0097be9a479c4c6fbd68047a946ef074.16","title":"Embaixada da República da Guiné Equatorial","lat":38.735999,"lng":-9.147029,"ornamentId":"ap1"},{"guid":"fece77f2c5b949c495919a8ca8989825.16","title":"Igreja Nossa Senhora de Fátima","lat":38.739677,"lng":-9.150483,"ornamentId":"ap1"},{"guid":"9cf6967262643d3683d55f0363d129b3.16","title":"Auto-Club Médico Português (ACMP)","lat":38.738715,"lng":-9.149478,"ornamentId":"ap1"},{"guid":"d58f8bf74f623456a82a3979fb2f53c6.16","title":"Embaixada da República de El Salvador","lat":38.736037,"lng":-9.146629,"ornamentId":"ap1"},{"guid":"58a5f5e748d64e4f95f063f84bd1ea66.16","title":"Eneias","lat":38.7379,"lng":-9.153727,"ornamentId":"ap1"},{"guid":"26c4310b864b456fad9d85426358d8f3.16","title":"LIBERTAS ET JUSTITIA","lat":38.738427,"lng":-9.147913,"ornamentId":"ap1"},{"guid":"3c9bbf4722303f8cab894b0de73904f4.16","title":"Engawa by Kengo Kuma","lat":38.735613,"lng":-9.153191,"ornamentId":"ap1"},{"guid":"622fb5f40dff30799ea57407d7691757.16","title":"FitnessUp","lat":38.735515,"lng":-9.154402,"ornamentId":"ap1"},{"guid":"0e6041ad7bc148c494417940676e4962.16","title":"Homenagem a José de Azeredo Perdigão","lat":38.738688,"lng":-9.153157,"ornamentId":"ap1"},{"guid":"d99150e0ab0c36fb86297ced823afc30.16","title":"Painel Informativo JF das Avenidas Novas - Av. 5 de Outubro","lat":38.738204,"lng":-9.148195,"ornamentId":"ap1"},{"guid":"7ef542e25d8d451d933b14ff3a163dba.16","title":"Nu de Mulher","lat":38.736459,"lng":-9.15322,"ornamentId":"ap1"},{"guid":"bbfb660f0dd6489893e7ca0dc25b641d.16","title":"Museu da Coleção do Fundador","lat":38.736557,"lng":-9.154964,"ornamentId":"ap1"},{"guid":"152e837eb2dd3db0bdd8c44928adfabc.16","title":"Querubim Lapa, 1963","lat":38.742049,"lng":-9.148151,"ornamentId":"ap1"},{"guid":"1850bc7a61304ffc95c642a52456ec06.16","title":"Anchor","lat":38.742838,"lng":-9.150185,"ornamentId":"ap1"},{"guid":"08356f0affee47bda404c692f6f25fde.16","title":"Papisa","lat":38.736221,"lng":-9.154797,"ornamentId":"ap1"},{"guid":"700348b0588b396b9203c65646751242.16","title":"Galeria de Arte Tantos Livros... Livreiros","lat":38.735358,"lng":-9.149246,"ornamentId":"ap1"},{"guid":"7b489b7392bb48bc954eac216201c333.16","title":"Mulheres de Lisboa","lat":38.740135,"lng":-9.146734,"ornamentId":"ap1"},{"guid":"68814cf000db38a587c8aa33e07f33da.16","title":"Vidrão - Festival Monstra","lat":38.74129,"lng":-9.148765,"ornamentId":"ap1"},{"guid":"8add1020cbad40cf95dc6b0a0344b6da.16","title":"Vidrão Love Me Tender","lat":38.73809,"lng":-9.152445,"ornamentId":"ap1"},{"guid":"5c7de670bdd2366691f4eeaf22d57997.16","title":"Ponto Gira 415 - Av. Duque de Ávila","lat":38.735188,"lng":-9.148428,"ornamentId":"ap1"},{"guid":"487fd86a93e745ce98a439c4bbb0818b.11","title":"Torre do Parque José Maria Eugénio","lat":38.735034,"lng":-9.152253,"ornamentId":"ap1"},{"guid":"016d6ee5f0a04102b73e89ae279be53e.16","title":"Painel Informativo da Junta - Campo Pequeno","lat":38.743408,"lng":-9.145753,"ornamentId":"ap1"},{"guid":"712f7f3f4b144a4ea206484e11667fff.12","title":"Campo Pequeno","lat":38.742517,"lng":-9.145731,"ornamentId":"ap1"},{"guid":"82554469790f4752b4339cb8d31c602c.16","title":"Primavera","lat":38.743598,"lng":-9.146038,"ornamentId":"ap1"},{"guid":"15e3ba1620254fefb4c2fcf4406196b0.16","title":"Anfiteatro Exterior Jardim dos Cavaleiros","lat":38.740157,"lng":-9.142259,"ornamentId":"ap1"},{"guid":"06539e1b494c4c44a93d10d3b15b8ec1.16","title":"Ministério do Trabalho, Solidariedade e Segurança Social","lat":38.741504,"lng":-9.138026,"ornamentId":"ap1"},{"guid":"d1fd169e3b93445b8ecf4212d74dd916.16","title":"Secreta Mensagem I - Lagoa Henriques","lat":38.741807,"lng":-9.141251,"ornamentId":"ap1"},{"guid":"bb6ab18c54ee4579a1fb62d188a63c29.16","title":"Mercado do Bairro do Arco do Cego","lat":38.74006,"lng":-9.141728,"ornamentId":"ap1"},{"guid":"e01148be1e5c45e693426eab312c11ff.11","title":"Caixa Geral de Depósitos","lat":38.74181,"lng":-9.141764,"ornamentId":"ap1"},{"guid":"df2ae504502140eab67ad92c69861b1a.11","title":"Biblioteca Palácio Galveias","lat":38.741567,"lng":-9.143764,"ornamentId":"ap1"},{"guid":"6e15bd567f093977b1b3e1f6f04ce074.16","title":"Good Company","lat":38.739117,"lng":-9.142594,"ornamentId":"ap1"},{"guid":"2673011932284826b8c24e0b1dfa82a3.16","title":"O Quiosque","lat":38.741314,"lng":-9.138649,"ornamentId":"ap1"},{"guid":"5df67235484d4034996a57f16019f57b.16","title":"Prémio Valmor 1913","lat":38.736073,"lng":-9.145779,"ornamentId":"ap1"},{"guid":"0dc05e33a3d332dfb51a2e3d39c1c404.16","title":"Bulício do Carvoeiro","lat":38.742695,"lng":-9.140289,"ornamentId":"ap1"},{"guid":"15c42eabb4e4456c881e78cf83493874.16","title":"Instituto Português do Sangue e da Transplantação","lat":38.737455,"lng":-9.144957,"ornamentId":"ap1"},{"guid":"9dc35cb5030c402d9848c7a0bad2efee.16","title":"Torre Oeste do Campo Pequeno","lat":38.742676,"lng":-9.144636,"ornamentId":"ap1"},{"guid":"a74fccf0b17a49c592e445b7b1a35088.16","title":"Painel Informativo JF Areeiro - Praça de Londres","lat":38.74079,"lng":-9.137745,"ornamentId":"ap1"},{"guid":"5ce6e1ac6bbe4389a2de83ee90c8d20d.11","title":"Igreja de São João de Deus","lat":38.740461,"lng":-9.137639,"ornamentId":"ap1"},{"guid":"ead1583431d93442a8713e10bfa9c125.16","title":"Marco dos Correios nº 576 - Av. Magalhães Lima","lat":38.739378,"lng":-9.141731,"ornamentId":"ap1"},{"guid":"88efd32bb1083dd3a56cb4668dcb8f1d.16","title":"Liga Portuguesa dos Direitos do Animal","lat":38.741218,"lng":-9.139142,"ornamentId":"ap1"},{"guid":"f69be32dd10f412fa562104b9bf66bd4.16","title":"Galeto - Lojas com História","lat":38.73572,"lng":-9.144987,"ornamentId":"ap1"},{"guid":"eaded00a8a0032819b8ca1e19d91812d.16","title":"Harvard Club of Portugal","lat":38.739769,"lng":-9.141857,"ornamentId":"ap1"},{"guid":"7e28e857441934adb66362a1da819b15.16","title":"7UFREE - Dance Studio","lat":38.737157,"lng":-9.14193,"ornamentId":"ap1"},{"guid":"bcdedc33ae314508bb420685585edff5.16","title":"Flor de Ferro","lat":38.739434,"lng":-9.144614,"ornamentId":"ap1"},{"guid":"cdf8b85fa6e24fb98d014d1bc2a91b04.16","title":"Jardim Jorge Luís Borges","lat":38.735397,"lng":-9.142282,"ornamentId":"ap1"},{"guid":"f5328b468aa1385e9bdf2201bf6e016d.16","title":"Parque Canino do Jardim Marquês de Marialva","lat":38.742343,"lng":-9.144208,"ornamentId":"ap1"},{"guid":"13e46f9a1e5449ebbc61201b18967d6b.16","title":"Associação Nacional de Municípios Portugueses","lat":38.739706,"lng":-9.143038,"ornamentId":"ap1"},{"guid":"33027fd9e1804151bc66237eaad6b870.16","title":"Padrão Comemorativo da Batalha de Alvalade","lat":38.740074,"lng":-9.142041,"ornamentId":"ap1"},{"guid":"971543149d814d17b2815dfd9b309ea0.16","title":"Namur - Pastelaria","lat":38.740523,"lng":-9.144541,"ornamentId":"ap1"},{"guid":"516fecf1d5b04476a7ee3f1ccfc38efa.16","title":"INESC","lat":38.736447,"lng":-9.140782,"ornamentId":"ap1"},{"guid":"0e3e0035f2a94075b84170497485fca0.16","title":"Jardins Caixa - Entrada 3","lat":38.742056,"lng":-9.140757,"ornamentId":"ap1"},{"guid":"f58c3bbf1ba24f99ae59f7d69ebbb6c2.16","title":"MUPI - Avenida João Crisóstomo","lat":38.736529,"lng":-9.141066,"ornamentId":"ap1"},{"guid":"a3ee323d838045de97687dfee9897b9e.16","title":"Parque de Jogos do Grupo Desportivo Operário","lat":38.742093,"lng":-9.144153,"ornamentId":"ap1"},{"guid":"96f83de9f879487c8c298d61996b2337.16","title":"Museu Casa da Moeda","lat":38.737554,"lng":-9.143012,"ornamentId":"ap1"},{"guid":"ba4e06d5d39a42c8bb3a25b173debc96.16","title":"Ponto Gira 427 - Av. da República","lat":38.738004,"lng":-9.146175,"ornamentId":"ap1"},{"guid":"39b5cad2b8f84bf7b284bb33285fee66.16","title":"Parque Infantil Jardim Gomes de Amorim","lat":38.737802,"lng":-9.143563,"ornamentId":"ap1"},{"guid":"1398d747c5964329aceb1a98d9ab5f42.16","title":"Dama Enamorada","lat":38.73872,"lng":-9.145692,"ornamentId":"ap1"},{"guid":"0946562f4cf648ebbfd06328d7e5bcb7.16","title":"Painel Informativo JF Areeiro - Bairro do Arco do Cego","lat":38.739497,"lng":-9.14122,"ornamentId":"ap1"},{"guid":"2088758dc09636728de0b908c31473bb.16","title":"Consulado Honorário da República da Letónia","lat":38.735975,"lng":-9.145034,"ornamentId":"ap1"},{"guid":"8c0489494cff4b6da19fa3b20d3fda0c.16","title":"Equipamentos de Manutenção do Jardim do Arco Cego","lat":38.735583,"lng":-9.142102,"ornamentId":"ap1"},{"guid":"dd5e2eb1c19c32259da9d76bdfa616f2.16","title":"Ponto Gira 430 - Av. Barbosa du Bocage","lat":38.740895,"lng":-9.143194,"ornamentId":"ap1"},{"guid":"691b057c131f3f4c8c18f680e621aedd.16","title":"Oh Pereira - Taberna Manuel Pereira Gomes","lat":38.740058,"lng":-9.142777,"ornamentId":"ap1"},{"guid":"79bff220e80440e08b5a2e97928288c1.16","title":"Busto no Alto","lat":38.738351,"lng":-9.144929,"ornamentId":"ap1"},{"guid":"97d94cd407a23ec780da9838aa7dc650.16","title":"Painel Informativo JF Areeiro - R. Costa Goodolfim","lat":38.739153,"lng":-9.141814,"ornamentId":"ap1"},{"guid":"472dfd957e864a719f19d246885a0856.16","title":"Os Irmãos","lat":38.738193,"lng":-9.145568,"ornamentId":"ap1"},{"guid":"625e836d848d32f69123714467fe4b95.16","title":"Campo Pequeno Art Gallery","lat":38.742323,"lng":-9.145607,"ornamentId":"ap1"},{"guid":"63ea84c71c9a4656b50c2c438715d5c5.16","title":"Posto dos CTT - Avenida de Roma","lat":38.742943,"lng":-9.138691,"ornamentId":"ap1"},{"guid":"9210af9b92bc4340a1027bf2616a60ef.16","title":"Homens de Pedra","lat":38.738876,"lng":-9.144454,"ornamentId":"ap1"},{"guid":"9b30b72c45ed36b8b8f747a075ba3694.16","title":"Fachada Modernista","lat":38.737569,"lng":-9.144384,"ornamentId":"ap1"},{"guid":"a518f8fde2764d04ad4c93a99129c979.16","title":"Galeria de Arte Henry","lat":38.738276,"lng":-9.144274,"ornamentId":"ap1"},{"guid":"e387191c01bd41c0aaeaf88aa2e206f7.16","title":"Fachada Beaux-Artes","lat":38.735303,"lng":-9.144383,"ornamentId":"ap1"},{"guid":"c5eca17cf48c42a5afaec8d4db1807d9.16","title":"Casa Viscondes de Valmor","lat":38.738427,"lng":-9.145598,"ornamentId":"ap1"},{"guid":"b2a276d10d084a89b16aa600560c3bcd.16","title":"Stone Flowers","lat":38.740804,"lng":-9.143872,"ornamentId":"ap1"},{"guid":"02058e19624d3dc1bdd0e05a4b3a4cd5.16","title":"Universidade das Avenidas Novas para a Terceira Idade - UNANTI","lat":38.73784,"lng":-9.143883,"ornamentId":"ap1"},{"guid":"b937038730c737d582b34affb2667329.16","title":"Frankie by SMILE","lat":38.737104,"lng":-9.140797,"ornamentId":"ap1"},{"guid":"2db5d5a25cc84aee91789daad49dc045.16","title":"Lojas com História - Livraria Barata","lat":38.743119,"lng":-9.138767,"ornamentId":"ap1"},{"guid":"76e21514133645ae84c54698a5d829f0.16","title":"Fundacão GDA","lat":38.739869,"lng":-9.144396,"ornamentId":"ap1"},{"guid":"fe24adbabb56487190f52622c6eae9f9.16","title":"The Column at Rodízio Grill","lat":38.741324,"lng":-9.145828,"ornamentId":"ap1"},{"guid":"781a931a64524b2d827b4ae00c73151b.16","title":"Gato Assanhado","lat":38.739857,"lng":-9.136707,"ornamentId":"ap1"},{"guid":"089cbbd40dbe45519d01040241e5b30b.16","title":"Ginásio 1Fight","lat":38.738966,"lng":-9.145789,"ornamentId":"ap1"},{"guid":"26f1da5a19b2372d9dc6e90e79b55eb8.16","title":"Schuler","lat":38.73666,"lng":-9.142244,"ornamentId":"ap1"},{"guid":"b44f1652ad0b452a87ae2a4cdc0b7ae8.16","title":"Culturgest","lat":38.740929,"lng":-9.142726,"ornamentId":"ap1"},{"guid":"82cf00e0ad9c4150b4b31b7f00fa8e79.16","title":"Blue Shell","lat":38.740744,"lng":-9.14426,"ornamentId":"ap1"},{"guid":"8b74fb9e797f4fafa517249b21f2b52c.16","title":"Estátua de Guerra Junqueiro","lat":38.740087,"lng":-9.137005,"ornamentId":"ap1"},{"guid":"4d6b007cc51d4dbda15e8ac5e9edf59b.16","title":"Separated Sculpture","lat":38.740008,"lng":-9.137633,"ornamentId":"ap1"},{"guid":"e549e8b49251346e89654aa235e31411.16","title":"Parque de Merendas - Jardim Gomes de Amorim","lat":38.73765,"lng":-9.143702,"ornamentId":"ap1"},{"guid":"d77c4f33ed9b40c0aad9321c4624b7a2.16","title":"Estação Gira 442 - Campo Pequeno","lat":38.74347,"lng":-9.145221,"ornamentId":"ap1"},{"guid":"d09e8ca2b2ba3a47a04610c9d36f000d.16","title":"Fundação Res Publica","lat":38.737994,"lng":-9.145519,"ornamentId":"ap1"},{"guid":"443dc5db78b3474a80bed34e53cd9b26.16","title":"Abobada Celeste","lat":38.740856,"lng":-9.141313,"ornamentId":"ap1"},{"guid":"71dd5cc213c541cda14eb797df695552.16","title":"MUPI - Jardim José Luís Borges","lat":38.736411,"lng":-9.142119,"ornamentId":"ap1"},{"guid":"15a3291fbf234e6da0efc61758500738.16","title":"Bustos de mármore de Carrara","lat":38.740994,"lng":-9.143606,"ornamentId":"ap1"},{"guid":"f06d2de69af436e590aa3f6ec1aa4100.16","title":"Painel Informativo JF Areeiro - Rua do Arco do Cego","lat":38.738644,"lng":-9.141856,"ornamentId":"ap1"},{"guid":"e082a0cc2bd54cb9986640e3b867d3c0.16","title":"Chimney Building","lat":38.742162,"lng":-9.14244,"ornamentId":"ap1"},{"guid":"23d6cb1528ea489088c9af3b043cad1c.16","title":"Parque Infantil da Praça de Londres","lat":38.741063,"lng":-9.138488,"ornamentId":"ap1"},{"guid":"a1aa3d014a3036acb6338ffbcc373dab.16","title":"Galerias Via Venetto","lat":38.742193,"lng":-9.142081,"ornamentId":"ap1"},{"guid":"db5df3dcc4234ed28556f140efcd3360.16","title":"Bairro Arco do Cego","lat":38.740451,"lng":-9.138596,"ornamentId":"ap1"},{"guid":"fe0e5737088743c9965a07b8321de0da.16","title":"A primeira façanha de Nun'Álvares","lat":38.743002,"lng":-9.142011,"ornamentId":"ap1"},{"guid":"18aaf5dc479a4df2bd6534eb06830054.11","title":"As Três Graças","lat":38.741201,"lng":-9.138475,"ornamentId":"ap1"},{"guid":"872fa7fd2d6249c5bce74a371741c308.16","title":"Esquerda - As Asas da Vitória de Samotrácia","lat":38.735144,"lng":-9.141915,"ornamentId":"ap1"},{"guid":"0d0a3cdbd318384798c783fa8cf69379.16","title":"Aqui viveu Engº Manuel Tito de Morais - 6º Presidente da Assembleia da República","lat":38.739365,"lng":-9.141182,"ornamentId":"ap1"},{"guid":"213434d12d0b443fa52a72184c179ce9.16","title":"Igreja Nazareno","lat":38.743206,"lng":-9.141321,"ornamentId":"ap1"},{"guid":"81ec94dd19e04974aa0d32ca10e8fce0.16","title":"Parque Infantil Campo Pequeno","lat":38.743328,"lng":-9.14481,"ornamentId":"ap1"},{"guid":"2b5db40ad8af375d910aee23d3b516d5.16","title":"Comemorações do Dia Internacional dos Direitos Humanos","lat":38.736287,"lng":-9.142246,"ornamentId":"ap1"},{"guid":"7de69cc99c4b4b16894c6e82fbacf158.16","title":"Centro Intergeracional do Areeiro","lat":38.738453,"lng":-9.1418,"ornamentId":"ap1"},{"guid":"2f1a247ae7e44f5a9ba7e9398ad03cea.16","title":"Parque Canino Jardim Irmã Lúcia","lat":38.73955,"lng":-9.137712,"ornamentId":"ap1"},{"guid":"57f1ad2265694536b86391f69bfe19aa.16","title":"Pedro Alecrim - Reciclar o Olhar","lat":38.736296,"lng":-9.14491,"ornamentId":"ap1"},{"guid":"ec5e8a4fbe9b4ce7a02f315e7b063ed8.16","title":"Contrapunto","lat":38.738426,"lng":-9.138779,"ornamentId":"ap1"},{"guid":"5714bb2590574238a54c5ad16515624c.16","title":"Nunca mais olhaste o Céu","lat":38.741014,"lng":-9.143322,"ornamentId":"ap1"},{"guid":"a122446fe5ac4636949b6a77ea3b7101.16","title":"Dinossauro Campo Pequeno","lat":38.742245,"lng":-9.144588,"ornamentId":"ap1"},{"guid":"89c3f2ede6e43101a956040107604039.16","title":"Jardim Maria José Moura","lat":38.740884,"lng":-9.143656,"ornamentId":"ap1"},{"guid":"e0e4e73e964b4208ab20dc7a6dc601a5.16","title":"Pérola do Chaimite","lat":38.735258,"lng":-9.14561,"ornamentId":"ap1"},{"guid":"2b4d8806e51c4dbdab69094f0445fc1a.16","title":"Edifício Garrigues","lat":38.736255,"lng":-9.145835,"ornamentId":"ap1"},{"guid":"a976b4ea86b731ac9d65def3fb64c6f8.16","title":"Embaixada da Argentina","lat":38.736668,"lng":-9.141694,"ornamentId":"ap1"},{"guid":"dcf76e047e854250aa72ed49af854fd7.16","title":"O Poeta e a Musa","lat":38.741079,"lng":-9.137842,"ornamentId":"ap1"},{"guid":"d671712ac5ff49e68ed6f1c004ef4135.16","title":"O lado Dela","lat":38.737924,"lng":-9.136478,"ornamentId":"ap1"},{"guid":"2b07c3c03aeb4e87a4ea20b9d4728bf4.16","title":"A Dama e as Uvas","lat":38.743621,"lng":-9.143724,"ornamentId":"ap1"},{"guid":"9f0ae76b913c4977941f995200bb9ee9.16","title":"Escultura “Sem título” - Fernando Conduto","lat":38.741915,"lng":-9.141064,"ornamentId":"ap1"},{"guid":"650a9081a59a49e48bcd756738b1a671.16","title":"Ponto Gira 417 - Av. Duque d’Ávila / Jardim Arco do Cego","lat":38.735332,"lng":-9.14263,"ornamentId":"ap1"},{"guid":"2a11692c0a684d149c03817882aecf0a.16","title":"Painel Artístico - Oceanos","lat":38.740685,"lng":-9.143417,"ornamentId":"ap1"},{"guid":"55c92c0d9c274c4eafaeeb966a430e5b.16","title":"Escultura de Entalado - Soares Branco","lat":38.741594,"lng":-9.139854,"ornamentId":"ap1"},{"guid":"318ae4e168153966b9bca51b8d728b9b.16","title":"Azulejos de Padrão - Querubim Lapa","lat":38.739358,"lng":-9.145162,"ornamentId":"ap1"},{"guid":"54ee6341e2894b5eb721cf03d7efec7e.16","title":"Zodíaco","lat":38.736698,"lng":-9.141757,"ornamentId":"ap1"},{"guid":"3d5d4f1ebbc34974a046d05de8aedde3.16","title":"Vila Santos","lat":38.741385,"lng":-9.145539,"ornamentId":"ap1"},{"guid":"c927ae23c7294f2c9f311e4ca1cc5079.11","title":"Busto de Júlia Lopes de Almeida","lat":38.737905,"lng":-9.142447,"ornamentId":"ap1"},{"guid":"a30c331968b94cfba5a878660ebb6023.16","title":"A Charrua do Lavrador","lat":38.735192,"lng":-9.140718,"ornamentId":"ap1"},{"guid":"eb03c38e75bd4fd28e560485df341817.16","title":"CGD Cube","lat":38.740935,"lng":-9.141225,"ornamentId":"ap1"},{"guid":"4169598430974bdabf3fb7c9e78c03e5.16","title":"Formas Cúbicas II","lat":38.734997,"lng":-9.144839,"ornamentId":"ap1"},{"guid":"174a81aaa42a49feb57183b10f2d2979.11","title":"Estátuas alusivas ao Teatro","lat":38.741114,"lng":-9.138087,"ornamentId":"ap1"},{"guid":"6dd40f2d500d3f5283171179890f6058.16","title":"Casa Xangai - Lojas com História","lat":38.73576,"lng":-9.145676,"ornamentId":"ap1"},{"guid":"8ca96d5520793b52bbb3ccb81b05e7bb.16","title":"Técnico Innovation Center","lat":38.735536,"lng":-9.142766,"ornamentId":"ap1"},{"guid":"450f80ff33a045e3a6687b59539cab22.16","title":"Lady & Birds Sculpture","lat":38.737747,"lng":-9.145465,"ornamentId":"ap1"},{"guid":"9ee6fe6169473cd69846df85fd685fc1.16","title":"Homenagem a Joaquim Pedro Monteiro","lat":38.742823,"lng":-9.145466,"ornamentId":"ap1"},{"guid":"52b24b91039e4bd6a3efa7a9f39000fe.16","title":"Rainha Santa Isabel","lat":38.740611,"lng":-9.140767,"ornamentId":"ap1"},{"guid":"72c2bdee217c4c0da778c9239d43159d.16","title":"Embaixada da Lituânia","lat":38.738645,"lng":-9.140595,"ornamentId":"ap1"},{"guid":"ff9239622e6f4da1a56647cf6b473e24.16","title":"Secreta Mensagem II - Lagoa Henriques","lat":38.741818,"lng":-9.141319,"ornamentId":"ap1"},{"guid":"5a34c1c59f3a43cdb2b3e2014df1060e.16","title":"Querubins em Festa","lat":38.735409,"lng":-9.141482,"ornamentId":"ap1"},{"guid":"0cbbace6a73c3783bc4fb45c4b03f101.16","title":"The Cool French Bulldog","lat":38.743186,"lng":-9.142028,"ornamentId":"ap1"},{"guid":"a143f84895493a048502706d6cc8844a.16","title":"Amália Rodrigues - Rainha do Fado","lat":38.739681,"lng":-9.145941,"ornamentId":"ap1"},{"guid":"220da1103a314823a90387b9ecec8fbe.16","title":"Direita - As Asas da Vitória de Samotrácia","lat":38.734921,"lng":-9.141707,"ornamentId":"ap1"},{"guid":"378ae437c3b14e8d888dda59c31d484d.16","title":"Jardins Caixa - Entrada 2","lat":38.741807,"lng":-9.142302,"ornamentId":"ap1"},{"guid":"b77d6a818872416c9c8bce90febd46b7.16","title":"Cavalos do Campo Pequeno","lat":38.740229,"lng":-9.146134,"ornamentId":"ap1"},{"guid":"5b7c34432a11438aa3bb7fbb8d10e6db.16","title":"Embaixada do Chile","lat":38.737847,"lng":-9.145485,"ornamentId":"ap1"},{"guid":"cd04c8bba5144ecbaf7e2d3beb908740.16","title":"Musa","lat":38.734924,"lng":-9.137612,"ornamentId":"ap1"},{"guid":"1e767b04ac5d4697ae4e67f4dec9debf.16","title":"Estátua D’Ele","lat":38.739081,"lng":-9.141657,"ornamentId":"ap1"},{"guid":"60210871eba23ab5b675250ac3208ab5.16","title":"Double Deuce","lat":38.737024,"lng":-9.144001,"ornamentId":"ap1"},{"guid":"6a0c390e835e48b696b398e2780d776b.16","title":"Casa da Moeda","lat":38.736799,"lng":-9.142308,"ornamentId":"ap1"},{"guid":"a6a6445270e63ff5aff86d1d991697c4.16","title":"Placa de Inauguração do TIC","lat":38.735908,"lng":-9.142927,"ornamentId":"ap1"},{"guid":"765ff9f44643476ba37c67a36fdb3891.16","title":"Damas de Pedra Sul","lat":38.738966,"lng":-9.143529,"ornamentId":"ap1"},{"guid":"88a5399a8c5c4126bb15d2d47edf35e7.16","title":"CGD Triangle","lat":38.741263,"lng":-9.141642,"ornamentId":"ap1"},{"guid":"fcf928e48fd043e59d958e7829522d0b.16","title":"Edifício da Pastelaria Versailles","lat":38.735518,"lng":-9.145624,"ornamentId":"ap1"},{"guid":"2ee8b51bd44f48689bf6fffc55e65f89.16","title":"Acqua Roma - Centro Comercial","lat":38.743206,"lng":-9.139397,"ornamentId":"ap1"},{"guid":"a2b0521f0eb14b3f94532fa4da539ee3.16","title":"Máquinas de exercício ao ar livre","lat":38.73768,"lng":-9.143369,"ornamentId":"ap1"},{"guid":"5b6e9c98fd4d4271b57e65df3ee953a5.16","title":"Estátua dela","lat":38.739484,"lng":-9.141847,"ornamentId":"ap1"},{"guid":"e8641c3af9814a4db6279e8d0dbbb13a.16","title":"O Cão B das Avenidas Novas","lat":38.738324,"lng":-9.14317,"ornamentId":"ap1"},{"guid":"c5e02a8f5ce746798eb0b83aa4e7682e.16","title":"Marco dos correios 1341","lat":38.736552,"lng":-9.140865,"ornamentId":"ap1"},{"guid":"b634980098fa34229bdcc61a8a2f5ee2.16","title":"Restaurante O Nobre","lat":38.743434,"lng":-9.144219,"ornamentId":"ap1"},{"guid":"8a6104aff610477888f14c48f126b1fb.11","title":"Homenagem a Jorge Luis Borges","lat":38.736253,"lng":-9.142137,"ornamentId":"ap1"},{"guid":"582ce2517c3f4ec4879c8b58438de711.16","title":"A Chaminé","lat":38.741575,"lng":-9.142104,"ornamentId":"ap1"},{"guid":"b8fad73c07714f9bb21e7662b46afd2d.16","title":"Damas de Pedra Norte","lat":38.739476,"lng":-9.143635,"ornamentId":"ap1"},{"guid":"b77ab4ec7112432188b80caaf8cffee5.16","title":"Jardins Caixa - Entrada 1","lat":38.7416,"lng":-9.143083,"ornamentId":"ap1"},{"guid":"2b2fcaf02d5e4c2dabd7d31651db57aa.16","title":"Reciclagem Street Art","lat":38.735344,"lng":-9.143441,"ornamentId":"ap1"},{"guid":"e7e9e869c8fe3e5683926f62b9b51844.16","title":"Ordem dos Contabilistas Certificados","lat":38.74037,"lng":-9.145414,"ornamentId":"ap1"},{"guid":"5464acac356d39b197404afc51437c26.16","title":"Castelo de Almourol - Painel de Azulejos","lat":38.738941,"lng":-9.142535,"ornamentId":"ap1"},{"guid":"1688e1a9f2d6435f85ff6f573b0119a7.16","title":"CTT Avenida João Crisóstomo","lat":38.736374,"lng":-9.143993,"ornamentId":"ap1"},{"guid":"4a9c537d38033f29b70a4296c83278eb.16","title":"Fogo by Alexandre Silva","lat":38.739313,"lng":-9.145421,"ornamentId":"ap1"},{"guid":"b6f769165b404582b3b4b79e32e4168a.16","title":"Historic Quarter City Map","lat":38.739417,"lng":-9.141925,"ornamentId":"ap1"},{"guid":"3007f36ae80a4cc7aa31f3c488bf0c95.16","title":"Hotel Alif","lat":38.742053,"lng":-9.143474,"ornamentId":"ap1"},{"guid":"5c06ed7a9bcd43c8b55ca6569737c69f.16","title":"Os Três Anéis","lat":38.736594,"lng":-9.142504,"ornamentId":"ap1"},{"guid":"fb2ad29c3eca34c3a4986bd8935b89d7.16","title":"Damas de Pedra - Oeste","lat":38.739101,"lng":-9.144045,"ornamentId":"ap1"},{"guid":"7486dcdba06f4f48a3b119c0ff70dc64.16","title":"Arquivo Municipal de Lisboa - Arco do Cego","lat":38.740118,"lng":-9.141181,"ornamentId":"ap1"},{"guid":"b970408bc20b36ba83a27c8a9d5c8244.16","title":"Ponto Gira 429 - Av. Defensores de Chaves","lat":38.738463,"lng":-9.1442,"ornamentId":"ap1"},{"guid":"f509f20e680648aa8cf6853ddce674fa.16","title":"Apple House","lat":38.739514,"lng":-9.14422,"ornamentId":"ap1"},{"guid":"051d5e86d2b04b52a791c7803b13ff5d.16","title":"A Musa do Astrolábio","lat":38.734973,"lng":-9.137213,"ornamentId":"ap1"},{"guid":"cb3fcfd024864e848d1d6b98ceeb1f13.16","title":"Centro Comercial S. João de Deus","lat":38.73777,"lng":-9.141539,"ornamentId":"ap1"},{"guid":"19ec29bbac2245f9a990f47c55b3b2fb.16","title":"Jardim Arco do Cego","lat":38.736362,"lng":-9.142037,"ornamentId":"ap1"},{"guid":"adf3950543284125acd9b5c119132268.16","title":"Parque Área de Lazer","lat":38.739827,"lng":-9.138773,"ornamentId":"ap1"},{"guid":"67837d5feca83816967e71088f456c24.16","title":"Ponto Gira 416 - Avenida da República","lat":38.735256,"lng":-9.145371,"ornamentId":"ap1"},{"guid":"1da76f826f0c3fd286575ab2052dea3b.16","title":"Stone Owl - Bordalo II","lat":38.735483,"lng":-9.142842,"ornamentId":"ap1"},{"guid":"745d0762b37d4443a4c8f442f7ffe0f9.16","title":"Marcos de Correio - Av. Defensores de Chaves","lat":38.740703,"lng":-9.144737,"ornamentId":"ap1"},{"guid":"3b5db58c9fb845fc92cc51a38136a5ec.16","title":"Painel Informativo JF Avenidas Novas - Av. Elias Garcia","lat":38.739635,"lng":-9.144654,"ornamentId":"ap1"},{"guid":"aa363e2b0e5c4ce7aeb3e73bbe2cb3d1.16","title":"Marcos de Correio","lat":38.737336,"lng":-9.146016,"ornamentId":"ap1"},{"guid":"379e6672d73e4c8c8c603cb1f92183b6.16","title":"Casa de Trás-os-Montes e Alto Douro de Lisboa","lat":38.742233,"lng":-9.143625,"ornamentId":"ap1"},{"guid":"df3cdbfa144342df804d1d0c0190adec.11","title":"Vice-Reis da Índia","lat":38.740077,"lng":-9.142119,"ornamentId":"ap1"},{"guid":"f4dc9eabd86e3bb5bf0f47696375f146.16","title":"Flor das Avenidas","lat":38.738671,"lng":-9.144054,"ornamentId":"ap1"},{"guid":"76d30d22da494d309f53b560d3af2211.16","title":"Symbol on Top","lat":38.739735,"lng":-9.136744,"ornamentId":"ap1"},{"guid":"77fa7d3f37e7494084a86637b0ef134d.16","title":"Instituto Nacional de Estatística","lat":38.738405,"lng":-9.138307,"ornamentId":"ap1"},{"guid":"0923e6e8075e41709c11a8240b03e8a9.16","title":"Casa dos Estudantes do Império","lat":38.735124,"lng":-9.141456,"ornamentId":"ap1"},{"guid":"79fc21e351434f68a2b3a5b80fe01f88.16","title":"Igreja Evangélica Baptista","lat":38.734006,"lng":-9.148318,"ornamentId":"ap1"},{"guid":"f3b2a64da6ea313fb7a81fbca2bd585c.16","title":"Capela de Picoas","lat":38.734055,"lng":-9.146546,"ornamentId":"ap1"},{"guid":"af5688a587b54e56ae45ecc71dbe6b3a.16","title":"Vidrão colorido","lat":38.733559,"lng":-9.146873,"ornamentId":"ap1"},{"guid":"77ffcede112a40c7863b6eaf41c25317.16","title":"Galeria Art Lounge","lat":38.734205,"lng":-9.148034,"ornamentId":"ap1"},{"guid":"c1a5b98581113faea54992f78136e64d.16","title":"Ponto Gira 401 - Martens Ferrão","lat":38.728985,"lng":-9.147431,"ornamentId":"ap1"},{"guid":"9ea77481df31302b84d2945c164a70ad.16","title":"Jacaré","lat":38.733417,"lng":-9.153923,"ornamentId":"ap1"},{"guid":"e0b389e6ba734665b1969ca137a55640.16","title":"Mui Nobre Cidade de Lisboa 1880","lat":38.728541,"lng":-9.148284,"ornamentId":"ap1"},{"guid":"a010066c9b553463a21a5a8f3174be83.16","title":"Yoga Room","lat":38.73388,"lng":-9.151163,"ornamentId":"ap1"},{"guid":"817894767ad8417fa6c80bcd03369093.16","title":"Smile Face","lat":38.733389,"lng":-9.150509,"ornamentId":"ap1"},{"guid":"d39867efac5033a7ad6f53ae6636af93.16","title":"Âmbito Cultural do El Corte Inglés","lat":38.733226,"lng":-9.153484,"ornamentId":"ap1"},{"guid":"167c937d3e284394b4b938f7bf2b0a14.16","title":"Palácio José Maria Eugénio","lat":38.733737,"lng":-9.152156,"ornamentId":"ap1"},{"guid":"958e7d2c91974bd3bfa23c060dcb99d4.11","title":"Maternidade Alfredo da Costa","lat":38.732497,"lng":-9.147153,"ornamentId":"ap1"},{"guid":"50b81660d3b64412a82e084194deb080.16","title":"Alligator on the Wall","lat":38.729246,"lng":-9.14749,"ornamentId":"ap1"},{"guid":"a4aef440a0e94c76bbfca323ffbd41b9.16","title":"Fonte São Sebastião","lat":38.731103,"lng":-9.150503,"ornamentId":"ap1"},{"guid":"93246f3a26ef4769b2b896e57bedc71d.16","title":"Azulejos de Fachada Arte Nova","lat":38.733414,"lng":-9.147037,"ornamentId":"ap1"},{"guid":"acd9724910194780953ab9d266f4b51e.16","title":"A Janela Vitral","lat":38.72967,"lng":-9.15079,"ornamentId":"ap1"},{"guid":"496b408e65b448d38cd2bc3ff148d78a.16","title":"Igreja de São Sebastião da Pedreira","lat":38.732422,"lng":-9.151428,"ornamentId":"ap1"},{"guid":"9e1917965f08343aa1a3bf11dd5294fa.16","title":"For.Ever Art Gallery","lat":38.731421,"lng":-9.151612,"ornamentId":"ap1"},{"guid":"a62b97c66a2c494886a27cf23f4a03e0.16","title":"Azulejos Cesto das Vindimas 1","lat":38.729337,"lng":-9.149848,"ornamentId":"ap1"},{"guid":"687a9413c5e142ef8d1eb69275331dd3.16","title":"Institut Français","lat":38.734458,"lng":-9.149555,"ornamentId":"ap1"},{"guid":"0da84439189e41b58c5d16e1ad50ebec.16","title":"Kult Games","lat":38.734514,"lng":-9.15081,"ornamentId":"ap1"},{"guid":"a95c9f025ae74ff8a8484b0142e81ff4.16","title":"Dama em Queda","lat":38.734267,"lng":-9.148434,"ornamentId":"ap1"},{"guid":"1a15b7ae497244219f780de35a396a91.16","title":"The Pink Hat","lat":38.73009,"lng":-9.14731,"ornamentId":"ap1"},{"guid":"1f7ee87fbd81470bb41b5314fe0150cd.16","title":"Deusa Reclinada","lat":38.728722,"lng":-9.149327,"ornamentId":"ap1"},{"guid":"3b3e072eae774d26b8b4470a301d12ff.16","title":"Archer Towers","lat":38.734805,"lng":-9.152251,"ornamentId":"ap1"},{"guid":"3dcc7eb00e624501bc143f7843bfaa04.16","title":"Estação Gira 403 - Praça de Picoas","lat":38.731618,"lng":-9.146446,"ornamentId":"ap1"},{"guid":"ce85f466a48d3167a8725bb47bb6444c.16","title":"Cinemas UCI","lat":38.73297,"lng":-9.153011,"ornamentId":"ap1"},{"guid":"77a8f664a81434dd86cfcdf98c9ca20b.16","title":"Painel de Nossa Senhora da Conceição - Igreja de São Sebastião","lat":38.732539,"lng":-9.150737,"ornamentId":"ap1"},{"guid":"bbd582c311bc3d96a5eb163610e7705b.16","title":"Puzzle Room","lat":38.730376,"lng":-9.149518,"ornamentId":"ap1"},{"guid":"9b199c06cb284af29f6c719afea7555a.16","title":"XXX Conferência Rotária","lat":38.732214,"lng":-9.14676,"ornamentId":"ap1"},{"guid":"a7f9d6091afb4477a489bf60a293e5cb.16","title":"Santo Antonio de Lisboa","lat":38.733412,"lng":-9.151405,"ornamentId":"ap1"},{"guid":"aad07d61008f41e1899989546ca9bbc6.16","title":"El Corte Inglés - Lisboa","lat":38.733869,"lng":-9.154103,"ornamentId":"ap1"},{"guid":"5ba8cad71a9b4062af17ba6c291b627f.16","title":"Nunciatura Apostolica","lat":38.733268,"lng":-9.150006,"ornamentId":"ap1"},{"guid":"fd969682c16941eba7fd350af7d78d4d.16","title":"Academia de Bilhar de Lisboa - Bola Branca","lat":38.733347,"lng":-9.148317,"ornamentId":"ap1"},{"guid":"b1e061044f1846b89ca606011b5ed903.16","title":"Picoas Plaza","lat":38.731259,"lng":-9.148158,"ornamentId":"ap1"},{"guid":"8d21a3c734f14eac91ae358a530309a1.16","title":"Cinema Mundial","lat":38.728862,"lng":-9.146749,"ornamentId":"ap1"},{"guid":"cd82d4878988482fa0f329e44fb4aef4.16","title":"Picoas Plaza: Lago","lat":38.730653,"lng":-9.148479,"ornamentId":"ap1"},{"guid":"0b8a5761f3474758aafffe529fcefbe4.16","title":"Ameias","lat":38.734815,"lng":-9.153406,"ornamentId":"ap1"},{"guid":"5c553d0825f34b0284274d59505132b1.16","title":"Painel Informativo da JF Avenidas Novas - R. Viriato","lat":38.730461,"lng":-9.148262,"ornamentId":"ap1"},{"guid":"f36b3d438c2e49469ce2444ad41bd5fb.16","title":"Estúdios \"Música no Coração\"","lat":38.731678,"lng":-9.147532,"ornamentId":"ap1"},{"guid":"a11e0dd113df4538b6f9aac7d778fdbf.16","title":"Meninos","lat":38.728429,"lng":-9.14978,"ornamentId":"ap1"},{"guid":"f05c60abca434f4e8a8c9366dcfa9d84.11","title":"O olhar","lat":38.729205,"lng":-9.147439,"ornamentId":"ap1"},{"guid":"a498cc9197da4974aedffd13147aa2aa.16","title":"Three Marquesses Faces","lat":38.734419,"lng":-9.152032,"ornamentId":"ap1"},{"guid":"3defefbe7ed04eab827f68c2e5ec9e54.16","title":"Azulejos Cesto das Vindimas","lat":38.729603,"lng":-9.149744,"ornamentId":"ap1"},{"guid":"8f88420ade6a3189a2cb0209b4aef02e.16","title":"Caravela Portuguesa","lat":38.728161,"lng":-9.149522,"ornamentId":"ap1"},{"guid":"b3a0c9a403b842c1b155aecef42b3630.16","title":"Anjos da Guarda","lat":38.732916,"lng":-9.146527,"ornamentId":"ap1"},{"guid":"ffe77fd493e844ea920b241b2a3343e7.16","title":"Mulher Admirando Flor","lat":38.730358,"lng":-9.148003,"ornamentId":"ap1"},{"guid":"d804f8af3d954085b05b97a9348ad8a5.16","title":"Portão com Azulejo","lat":38.734005,"lng":-9.150764,"ornamentId":"ap1"},{"guid":"49f3ff449a7e32589d569feb2861fc93.16","title":"Concêntricos","lat":38.734884,"lng":-9.152692,"ornamentId":"ap1"},{"guid":"2885f2e02f9f4cc3b80beb4c8ac11c2d.16","title":"Embaixada da República de Moçambique","lat":38.731418,"lng":-9.149908,"ornamentId":"ap1"},{"guid":"f4fad706ab824816804e58b24bf47d52.16","title":"Family Frieze","lat":38.729997,"lng":-9.15041,"ornamentId":"ap1"},{"guid":"c265da6ac67641389e11d222fb2fc077.16","title":"Palácio do Marquês de Sá da Bandeira","lat":38.733613,"lng":-9.1519,"ornamentId":"ap1"},{"guid":"5a35ddf75c284e59b9b6d6b6100fa8ec.11","title":"Monumento às Mães","lat":38.732215,"lng":-9.146895,"ornamentId":"ap1"},{"guid":"5e81fd24f56243f59757ce8f7089d1af.16","title":"Teatro Villaret","lat":38.730305,"lng":-9.146793,"ornamentId":"ap1"},{"guid":"b412f3aa530645a3b41ec842b4e861db.16","title":"Prémio Valmor 1916","lat":38.732368,"lng":-9.150588,"ornamentId":"ap1"},{"guid":"019dd92e761130169fd209cb3643ad5f.16","title":"Yoga Shankara","lat":38.732981,"lng":-9.151916,"ornamentId":"ap1"},{"guid":"f1b5c96e4ab140cda670c34c9873e37d.16","title":"Embaixada da República da África do Sul","lat":38.732574,"lng":-9.150398,"ornamentId":"ap1"},{"guid":"de20acd64b60482d9e2110871fa14c3d.16","title":"Brasão de armas do Vaticano","lat":38.73312,"lng":-9.149849,"ornamentId":"ap1"},{"guid":"fb092aa991a2470e997cdaffd841ef3b.16","title":"1912 Fachada","lat":38.731634,"lng":-9.148782,"ornamentId":"ap1"},{"guid":"7d63f7caacab44469aee5e13c4aaa51e.16","title":"Ordem dos Engenheiros","lat":38.728158,"lng":-9.149197,"ornamentId":"ap1"},{"guid":"6ec1ff9d686b42689b8ad6681f0c203c.11","title":"Blu & OsGemeos","lat":38.72973,"lng":-9.146786,"ornamentId":"ap1"},{"guid":"0a1d82a4ac784b5a8d073daefd41155a.16","title":"Marcos de Correio - Av. António Augusto de Aguiar","lat":38.730854,"lng":-9.150805,"ornamentId":"ap1"},{"guid":"d65e34f331b03950809724f46cc2582f.16","title":"Estação Parque","lat":38.729741,"lng":-9.150224,"ornamentId":"ap1"},{"guid":"4a9e6d7dc4f547a9ac22493a7024a757.16","title":"Valmor 1945","lat":38.729263,"lng":-9.150547,"ornamentId":"ap1"},{"guid":"f18013266c3730859be112184d88317f.16","title":"Homenagem às Mulheres de Trabalho de Lisboa","lat":38.730392,"lng":-9.147039,"ornamentId":"ap1"},{"guid":"cfb9231a3588424a808ef187f011b2a5.16","title":"White Guardian","lat":38.729737,"lng":-9.146315,"ornamentId":"ap1"},{"guid":"7df30fdc1f9c47d8ad75996db7767578.16","title":"Porta da Natureza","lat":38.729489,"lng":-9.150196,"ornamentId":"ap1"},{"guid":"2520cca1d85f4c9fbf45391bca62151a.16","title":"Portões do Antigo Quartel","lat":38.734663,"lng":-9.152738,"ornamentId":"ap1"},{"guid":"4f8f10d4fe0c4a7885e6fd543ff0af8f.16","title":"Estação de Metropolitano S. Sebastião - Rua Carlos Testa","lat":38.733365,"lng":-9.152689,"ornamentId":"ap1"},{"guid":"0390826c23a44658af4b7ca8534f7914.16","title":"Busto de Manuel Rocha","lat":38.728309,"lng":-9.148819,"ornamentId":"ap1"},{"guid":"79911fadedd64219984ee7206bc08c4c.16","title":"Casa Malhoa","lat":38.732595,"lng":-9.146263,"ornamentId":"ap1"},{"guid":"a86676ebd5f144ca823d0236f08c8be5.16","title":"Entrada Azul - Picoas","lat":38.729907,"lng":-9.148611,"ornamentId":"ap1"},{"guid":"29c68fcadd9d44998dbf512d9a5ee29f.16","title":"Face no Azulejo","lat":38.733119,"lng":-9.147044,"ornamentId":"ap1"},{"guid":"acc1862ea03f4e938b68e25898b056f0.16","title":"Jardim Augusto Monjardino","lat":38.732112,"lng":-9.146947,"ornamentId":"ap1"},{"guid":"936056d7fb1a369282e0d62615df598b.16","title":"CTT Picoas","lat":38.730848,"lng":-9.150311,"ornamentId":"ap1"},{"guid":"4d059f6b12cb4af89d04c2c4fb4eaaa8.16","title":"Moiraparque","lat":38.728936,"lng":-9.150262,"ornamentId":"ap1"},{"guid":"c8487608980d4059b7b9e2507859d0a4.11","title":"Estação de Metro de Hèctor Guimard nas Picoas","lat":38.729908,"lng":-9.14696,"ornamentId":"ap1"},{"guid":"2e82523cf0594279a5f066914c20a9ae.16","title":"Menina com Ânfora","lat":38.730952,"lng":-9.151986,"ornamentId":"ap1"},{"guid":"45e46a50a77b4e29becc6aa1bfa53a29.16","title":"Musa II","lat":38.730337,"lng":-9.147931,"ornamentId":"ap1"},{"guid":"c3a67e0815054ff6ad33e83a2b8415d4.16","title":"Colar de Pedra","lat":38.729734,"lng":-9.146305,"ornamentId":"ap1"},{"guid":"d82ab238d46a4c6dae92559fa63df166.16","title":"CTT El Corte Inglés","lat":38.733628,"lng":-9.153911,"ornamentId":"ap1"},{"guid":"4e4a09a8709942cd8cb757cef6a741a1.16","title":"Palácio Sottomayor","lat":38.728651,"lng":-9.147497,"ornamentId":"ap1"},{"guid":"b58b139c47c83798a5b045d8fc338fd7.16","title":"ADFERSIT","lat":38.730953,"lng":-9.146932,"ornamentId":"ap1"},{"guid":"76f93ac8b7c8411083ec7e214a55d749.16","title":"Azulejos Taça com Flores","lat":38.73243,"lng":-9.149559,"ornamentId":"ap1"},{"guid":"287085b38d913de7a781f3a66475f4e0.16","title":"Musas Gregas","lat":38.730042,"lng":-9.15119,"ornamentId":"ap1"},{"guid":"467d0a528adf4aebbcfb36d2f6002632.16","title":"Water Fountain El Corte Ingles","lat":38.732261,"lng":-9.152757,"ornamentId":"ap1"},{"guid":"27f9b22bf0404a74b5cae809a283f999.16","title":"Busto de Pedra","lat":38.732761,"lng":-9.149471,"ornamentId":"ap1"},{"guid":"4fb9cd25ff774582b908388e79f759c7.16","title":"Portico do Palácio Sotto Mayor","lat":38.728694,"lng":-9.147774,"ornamentId":"ap1"},{"guid":"aad83e8bd9654cbd89b85ded164f11e3.16","title":"Os Pombos","lat":38.733824,"lng":-9.149056,"ornamentId":"ap1"},{"guid":"6a18d3ffc5463583b16d409a59466d8e.16","title":"Fabulous music at the station","lat":38.734268,"lng":-9.154101,"ornamentId":"ap1"},{"guid":"a250726bdb744306ad2fc198dd8824f2.16","title":"Centro Comercial Imaviz","lat":38.731063,"lng":-9.147145,"ornamentId":"ap1"},{"guid":"a2e701039d5748a49dc2b1fa086d22f8.16","title":"As Pombas da Paz","lat":38.728932,"lng":-9.149498,"ornamentId":"ap1"},{"guid":"cc2ea5bea90d3343a31ff1106d650dd8.16","title":"Embaixada de Israel","lat":38.734516,"lng":-9.148497,"ornamentId":"ap1"},{"guid":"653d4c24dbc641aab111a7a0daeaf361.16","title":"Drinking The OIl","lat":38.729617,"lng":-9.147246,"ornamentId":"ap1"},{"guid":"d9c9b4be5791400fb3692cc594d5e2ac.16","title":"Angels and Devils","lat":38.730972,"lng":-9.150132,"ornamentId":"ap1"},{"guid":"3ef0a8c80e2e3f60b6b46c9884907971.16","title":"Sculptures by José Rodrigues","lat":38.731848,"lng":-9.146895,"ornamentId":"ap1"},{"guid":"deba6d81ec24415a8d36ede08a6b325d.16","title":"Edifício Tricana","lat":38.733732,"lng":-9.146073,"ornamentId":"ap1"},{"guid":"afb2bdc28f3a4cb1aacfc0e1f89566f5.16","title":"O Senhor do Adeus","lat":38.733559,"lng":-9.14528,"ornamentId":"ap1"},{"guid":"512c16e36aef36a796c0b272f0bf711b.16","title":"Centro Comercial Leo","lat":38.734604,"lng":-9.137299,"ornamentId":"ap1"},{"guid":"a6c39b4806ac488fb4442de977584f6d.16","title":"Parque Infantil do Jardim Constantino","lat":38.731058,"lng":-9.137136,"ornamentId":"ap1"},{"guid":"de0953c821f5490ba4db21e89b7d1140.16","title":"Obelisco Parisiense","lat":38.729239,"lng":-9.145532,"ornamentId":"ap1"},{"guid":"769f261163354b7689e26437892480e4.11","title":"Coreto da Praça José Fontana","lat":38.730079,"lng":-9.144028,"ornamentId":"ap1"},{"guid":"de9437d6b2f34f119a92d91ec5b9f501.16","title":"Vila Almeida","lat":38.731321,"lng":-9.144017,"ornamentId":"ap1"},{"guid":"10045a0ab47c4e359b2ae9140e7f9a70.16","title":"Mercado 31 de Janeiro","lat":38.731265,"lng":-9.144684,"ornamentId":"ap1"},{"guid":"2ef5d888ba8d45d4be7e91179c0e74d4.12","title":"Jardim Henrique Lopes de Mendonça","lat":38.730305,"lng":-9.144477,"ornamentId":"ap1"},{"guid":"cd2cbec5bc734f6388c93bbf5ba5252a.16","title":"Painel Informativo JF Arroios - R. Almirante Barroso","lat":38.731449,"lng":-9.141946,"ornamentId":"ap1"},{"guid":"2027cc1782a0494ab9e4a92854f12eb9.16","title":"Marco de Correio nº 95 - Av. Duque de Loulé","lat":38.729192,"lng":-9.143907,"ornamentId":"ap1"},{"guid":"01647563eea54b358663bbcc12f16235.16","title":"A Faixada","lat":38.7316,"lng":-9.144249,"ornamentId":"ap1"},{"guid":"e69bb16ebf974090963cbc54cb349ca5.16","title":"Embaixada da Federação da Rússia","lat":38.734547,"lng":-9.138866,"ornamentId":"ap1"},{"guid":"30ea759390f93c52931df2afb70866ff.16","title":"Fonte Decorativa da EMTC","lat":38.733341,"lng":-9.141751,"ornamentId":"ap1"},{"guid":"47c7d33f622438e9a38332ab37da3435.16","title":"Homenagem ao Arquipélago dos Açores","lat":38.732384,"lng":-9.140934,"ornamentId":"ap1"},{"guid":"30ffbb629c2b3bebbbff59c16af1d33b.16","title":"Pascoal de Melo","lat":38.731292,"lng":-9.136407,"ornamentId":"ap1"},{"guid":"b0960fab9c964f5e9df6bb657a5562c1.16","title":"Quartel N°2 Corpo de Bombeiros Municipais","lat":38.733186,"lng":-9.142787,"ornamentId":"ap1"},{"guid":"6cc3c1f5b6814a9687c0814391037128.16","title":"Peixes na Parede","lat":38.731235,"lng":-9.1443,"ornamentId":"ap1"},{"guid":"4a2542b054094cd6ab37e30c2009dae9.16","title":"Mural Apoio À Vítima","lat":38.729605,"lng":-9.140155,"ornamentId":"ap1"},{"guid":"956dc8378fab42ca8f7fdc9b27cffe29.16","title":"Painel Informativo JF Arroios - R. Fernão Lopes","lat":38.732746,"lng":-9.144086,"ornamentId":"ap1"},{"guid":"2a9d458b186b4e50b77ec517cb95c1fd.11","title":"Busto de Cesário Verde","lat":38.732589,"lng":-9.140951,"ornamentId":"ap1"},{"guid":"3841cdff35733eaa8b8570db651c22ce.16","title":"Jaya Aerial Lab","lat":38.729691,"lng":-9.141432,"ornamentId":"ap1"},{"guid":"b1a471841efe4051b69256ad7906376f.16","title":"Hotel Alicante","lat":38.728821,"lng":-9.144501,"ornamentId":"ap1"},{"guid":"7ac33aae99b435749f0f64312d4c86ca.16","title":"Vila Mendonça","lat":38.732401,"lng":-9.139449,"ornamentId":"ap1"},{"guid":"7696e83afb1c3d3c98de6b1cf88420f1.16","title":"The Pilates Studio - Saldanha","lat":38.734175,"lng":-9.142675,"ornamentId":"ap1"},{"guid":"310b1b8e90ba41c099d57bb76e57002a.12","title":"Praça José Fontana","lat":38.729716,"lng":-9.143694,"ornamentId":"ap1"},{"guid":"d528729c2acf406fa1160c4194c6980f.16","title":"Corações de Viana - Calçada Portuguesa","lat":38.732656,"lng":-9.140726,"ornamentId":"ap1"},{"guid":"0ba1a294e66844e1b21d64a3ec7533b4.11","title":"Saldanha Residence","lat":38.731668,"lng":-9.145737,"ornamentId":"ap1"},{"guid":"73f1aadfe7cb3f748966f1a2d9360d7b.16","title":"Vila Pinto","lat":38.730369,"lng":-9.14621,"ornamentId":"ap1"},{"guid":"a1e5e1fe758a483888231b30843801b2.16","title":"Evolution - Gustavo Fernandes","lat":38.733475,"lng":-9.144162,"ornamentId":"ap1"},{"guid":"4ce63ab060883767acbc0d2c3fa42cc0.16","title":"Anderson .Paak - Kilos Graffiti","lat":38.729839,"lng":-9.141273,"ornamentId":"ap1"},{"guid":"1663143ad415457eb430c2239adbff24.16","title":"Brasão","lat":38.728411,"lng":-9.144932,"ornamentId":"ap1"},{"guid":"734ae51e1ef63219a16a631f891587ee.16","title":"Ponto Gira 407 - Duque de Saldanha","lat":38.734267,"lng":-9.144572,"ornamentId":"ap1"},{"guid":"97bcb8a14b6449a7b4d557a321652bbb.16","title":"Fernando Pessoa Morou Aqui","lat":38.731554,"lng":-9.13974,"ornamentId":"ap1"},{"guid":"d91c00f736fa3679bd90a132cbd427c1.16","title":"O Pescador e a Ninfa","lat":38.732572,"lng":-9.141196,"ornamentId":"ap1"},{"guid":"7cf5a10453a836e1a7c813aeb53d3533.16","title":"Absolute Health Club","lat":38.731629,"lng":-9.137609,"ornamentId":"ap1"},{"guid":"4d2966011e733d34a63c39a500b3a75e.16","title":"Quiosque Municipal do Jardim Constantino","lat":38.730748,"lng":-9.13742,"ornamentId":"ap1"},{"guid":"b946e8b26c1747b6aa2c48360222808c.16","title":"Sapateiro & Chaves","lat":38.728982,"lng":-9.143832,"ornamentId":"ap1"},{"guid":"b832d1f8fc2b430daa4bc872e72beaef.16","title":"Parque Infantil do Continente","lat":38.733486,"lng":-9.142826,"ornamentId":"ap1"},{"guid":"87dfa3f60b634b2099cd668d16a03ad3.16","title":"The Stone Kid","lat":38.729541,"lng":-9.140567,"ornamentId":"ap1"},{"guid":"a2858bec4117381784870fabd1370cc4.16","title":"Mural I Love Lebanon","lat":38.731853,"lng":-9.141374,"ornamentId":"ap1"},{"guid":"5ba423b82b503fe2b982586aff129408.16","title":"Ponto Gira 406 - Praça Duque de Saldanha","lat":38.734107,"lng":-9.145433,"ornamentId":"ap1"},{"guid":"579f95b329f84a0c84c42aed570398b6.16","title":"Friendly Hand","lat":38.73419,"lng":-9.144322,"ornamentId":"ap1"},{"guid":"9b15a531a432461ea6888d8c4588a679.16","title":"Casa de Nuno P. de Oliveira","lat":38.73398,"lng":-9.144135,"ornamentId":"ap1"},{"guid":"a7058d7abf1246f7b9edb99385b2129e.11","title":"Edifício Monumental","lat":38.733389,"lng":-9.145485,"ornamentId":"ap1"},{"guid":"33ea25556184463a8f5576ff4a65e1ec.16","title":"Igreja Luterana de Lisboa","lat":38.734404,"lng":-9.139672,"ornamentId":"ap1"},{"guid":"48362741606b346b99b72ed7e92df559.16","title":"Neya Lisboa Hotel","lat":38.729351,"lng":-9.140498,"ornamentId":"ap1"},{"guid":"88fbf0124c294fcfafb65836960c5bdd.16","title":"O Trevo de Quatro Folhas","lat":38.732837,"lng":-9.140968,"ornamentId":"ap1"},{"guid":"0aa14a7e39083f86976d2208a2db6f2c.16","title":"associação distrital de judo de Lisboa","lat":38.733677,"lng":-9.137608,"ornamentId":"ap1"},{"guid":"f9e192acd2c0428cb54cf7d7c2dafbe6.16","title":"Polícia Judiciária","lat":38.72926,"lng":-9.143332,"ornamentId":"ap1"},{"guid":"bcdbdd61bcfa37ff9624df2d16623e5b.16","title":"Fernando Pessoa Morou Aqui","lat":38.73115,"lng":-9.140858,"ornamentId":"ap1"},{"guid":"cccabea64a4240699c5f6e59cea4f7f8.16","title":"Painel Informativo JF Arroios - Av. Defensores de Chaves","lat":38.733336,"lng":-9.142981,"ornamentId":"ap1"},{"guid":"55c29add23054a6f9a55c3da8097d90e.16","title":"Musa da Caravela","lat":38.734165,"lng":-9.140098,"ornamentId":"ap1"},{"guid":"5ce10ba015743d60ae2bd70aaafff6f3.16","title":"Galeria de Arte - Chumbo","lat":38.732791,"lng":-9.139181,"ornamentId":"ap1"},{"guid":"dca15d33bd984be7a521238d74e877da.16","title":"Fonte do Jardim Constantino","lat":38.730822,"lng":-9.137268,"ornamentId":"ap1"},{"guid":"266191ccf53a4bf0add71a96452f449f.16","title":"Homenagem a Assucena Veloso","lat":38.731413,"lng":-9.144398,"ornamentId":"ap1"},{"guid":"bfecebd4d28c42efb4e5e28750bfdf7f.16","title":"Clube Militar Naval","lat":38.734587,"lng":-9.143135,"ornamentId":"ap1"},{"guid":"ed010e23b5e83660b2b50d7a7fbfcb02.16","title":"Revestimento Azulejar Arte Nova","lat":38.733859,"lng":-9.143684,"ornamentId":"ap1"},{"guid":"514ab7f8b4e437dc91c9c377cc0bdba2.16","title":"Diorama Series - Vhils","lat":38.730767,"lng":-9.145659,"ornamentId":"ap1"},{"guid":"bb1261ddedd448fb91cc62a58bf6e7ca.16","title":"Fonte Hospital Dona Estefânia","lat":38.729428,"lng":-9.140236,"ornamentId":"ap1"},{"guid":"8014fc00da324fedb03ad9fd19729601.16","title":"O Olhar","lat":38.734624,"lng":-9.144787,"ornamentId":"ap1"},{"guid":"5061af6406b1386dab367c6617ca1923.16","title":"ESMTC – Escola de Medicina Tradicional Chinesa de Lisboa","lat":38.733483,"lng":-9.141369,"ornamentId":"ap1"},{"guid":"0ebc554d7afb4d8fa98fce2707e0de19.16","title":"Avenida dos Defensores de Chaves","lat":38.732817,"lng":-9.142989,"ornamentId":"ap1"},{"guid":"6053f5ed0e644b0898b00d2d260c4857.16","title":"Rock Face","lat":38.734326,"lng":-9.141609,"ornamentId":"ap1"},{"guid":"59385e7f9cc34310a2f370a2f6f9452b.16","title":"República Portuguesa Brasão","lat":38.731387,"lng":-9.137722,"ornamentId":"ap1"},{"guid":"e145b93285383b57933d1430f1694cbf.16","title":"Galeria da Calçada Portuguesa","lat":38.733742,"lng":-9.145528,"ornamentId":"ap1"},{"guid":"3c3623ae497342cc926e4542e6670982.16","title":"Sociedade Portuguesa de Autores","lat":38.7285,"lng":-9.144397,"ornamentId":"ap1"},{"guid":"c424e358e5453b72a8a6989ddfb09bf3.16","title":"Homenagem a José Fontana","lat":38.730883,"lng":-9.14379,"ornamentId":"ap1"},{"guid":"b0841f0b19834102b3c96fe9eb46575d.16","title":"Wall Sculpture Muse","lat":38.730059,"lng":-9.139409,"ornamentId":"ap1"},{"guid":"04ad097353974e6bb6039beaeecf4eff.16","title":"Mui Nobre e Sempre Leal Lisboa","lat":38.731176,"lng":-9.13772,"ornamentId":"ap1"},{"guid":"d8eb164a62e63c718a6942a8d4f1f675.16","title":"Vila Luz","lat":38.731193,"lng":-9.139686,"ornamentId":"ap1"},{"guid":"5c5d74f34e4039f8beef738864ce01e0.16","title":"Ponto Gira 315 - Jardim Constantino","lat":38.731287,"lng":-9.137017,"ornamentId":"ap1"},{"guid":"663cb8b9db5e3e7897fa2e64615a4451.16","title":"Fonte Ornamental da AHRESP","lat":38.734852,"lng":-9.143974,"ornamentId":"ap1"},{"guid":"156341ece7164b2eb1841c94da4ea398.16","title":"Clube Estefânia - Associação Recreativa e Cultural","lat":38.73072,"lng":-9.139853,"ornamentId":"ap1"},{"guid":"17dbc21d72b6402291a3b39135bece93.16","title":"Villa Luís José Nunes","lat":38.732129,"lng":-9.138136,"ornamentId":"ap1"},{"guid":"bfa49a7640304250af0e91e90a0a4106.16","title":"Formas Cúbicas I","lat":38.733192,"lng":-9.144941,"ornamentId":"ap1"},{"guid":"bc136853e2e34085bd1f5399e9e779c7.16","title":"Antiga Caldeira da Citröen.","lat":38.733921,"lng":-9.14237,"ornamentId":"ap1"},{"guid":"f4ad40dead82459a8293c4518ecd7306.16","title":"As Ninfas","lat":38.733766,"lng":-9.144042,"ornamentId":"ap1"},{"guid":"69a2d2938c3545a4ae0e9b35a9088605.11","title":"Estátua de Prometeu","lat":38.731181,"lng":-9.137461,"ornamentId":"ap1"},{"guid":"ad5ef81c5e6c4dea8cf71391f9c6b277.16","title":"C. M. A. G.","lat":38.732423,"lng":-9.146149,"ornamentId":"ap1"},{"guid":"68d6011ea44f438d8ce66b596318e13d.16","title":"Centro Comercial Saldanha Residence","lat":38.732406,"lng":-9.145477,"ornamentId":"ap1"},{"guid":"8594e24130d14dd796a21d8129d134ff.16","title":"Jarra de Flores","lat":38.732936,"lng":-9.140083,"ornamentId":"ap1"},{"guid":"2d8df66290fa460085f649718c6a993f.16","title":"Igreja Assembleia de Deus","lat":38.731206,"lng":-9.136431,"ornamentId":"ap1"},{"guid":"ccf8846ca8ee4fbcafbfdea1f0f0dfcd.16","title":"Costela-de-Adão - Arte em Calçada Portuguesa","lat":38.732393,"lng":-9.140553,"ornamentId":"ap1"},{"guid":"86867656da6141969ec2b0bd09442c17.16","title":"Farmácia Mundial","lat":38.731909,"lng":-9.14106,"ornamentId":"ap1"},{"guid":"8a7c71a910274bb0a4e9f44502b1244b.16","title":"The Statue of Picoas","lat":38.730859,"lng":-9.145909,"ornamentId":"ap1"},{"guid":"2b2b66fccdae3ee59f9e6e694805ccfc.16","title":"A Borboleta - Calçada Portuguesa","lat":38.732404,"lng":-9.140918,"ornamentId":"ap1"},{"guid":"8096f110a75142588b2e6def0016b28c.16","title":"The Fountain","lat":38.730432,"lng":-9.144225,"ornamentId":"ap1"},{"guid":"b695a3a92d2233c19c1b034628afeff7.16","title":"Lisboa Comedy Club","lat":38.728839,"lng":-9.144009,"ornamentId":"ap1"},{"guid":"5fcf66efe96831749580898fd1e6a6df.16","title":"Mission to Escape Lisbon","lat":38.731602,"lng":-9.137282,"ornamentId":"ap1"},{"guid":"f94b4c4626b2433c86ccf0a8059517f5.16","title":"Vila Paulo","lat":38.732257,"lng":-9.137385,"ornamentId":"ap1"},{"guid":"6cd7884fc23346769c232ff08c043d6c.16","title":"Woman Vision - Conceptual Vision","lat":38.734853,"lng":-9.145443,"ornamentId":"ap1"},{"guid":"4ce8af1d5ec136b58056e398acacb308.16","title":"Vila Roque","lat":38.734004,"lng":-9.139331,"ornamentId":"ap1"},{"guid":"f4d7e179476f4ae583608e830768004c.16","title":"Mural Mercado 31 de Janeiro","lat":38.730937,"lng":-9.144029,"ornamentId":"ap1"},{"guid":"116bb0fa981d4278882078b9c6ac7004.16","title":"Movie Men","lat":38.732074,"lng":-9.145316,"ornamentId":"ap1"},{"guid":"11133a4bb53d4bedab0d3e2cc6b68d15.16","title":"Asilo de Arroios","lat":38.733462,"lng":-9.139796,"ornamentId":"ap1"},{"guid":"4d3d12a47f333ad6acd884fdcaf3cfdc.16","title":"Marco dos CTT - Avenida da República","lat":38.734342,"lng":-9.145264,"ornamentId":"ap1"},{"guid":"7a9f1e3f3c74470ebe0be7fedda1f77b.16","title":"Mason Symbols","lat":38.731473,"lng":-9.138657,"ornamentId":"ap1"},{"guid":"866802a4964e4ecfb1c27a08cf0bc76f.16","title":"Krishna Mural","lat":38.730339,"lng":-9.141009,"ornamentId":"ap1"},{"guid":"493856ec98794b5e94b4eca73bd3b963.16","title":"Clube Atlético de Arroios","lat":38.730919,"lng":-9.13635,"ornamentId":"ap1"},{"guid":"3b278660282941b58220afc6585cd7e2.16","title":"Parque Infantil de Arroios","lat":38.730326,"lng":-9.143957,"ornamentId":"ap1"},{"guid":"b730961dd5714332b9598c6a302abca3.16","title":"Coroa Floral","lat":38.731634,"lng":-9.144855,"ornamentId":"ap1"},{"guid":"60373c168e5c428da6124444e0ac1ba8.16","title":"A Árvore","lat":38.729937,"lng":-9.144036,"ornamentId":"ap1"},{"guid":"7b58689f20574622b010b1b3f0f1630f.16","title":"Instituto Português de Fotografia","lat":38.733445,"lng":-9.139463,"ornamentId":"ap1"},{"guid":"80093e984fc2375e8627284a087203ca.16","title":"BS Art Gallery","lat":38.733046,"lng":-9.143002,"ornamentId":"ap1"},{"guid":"3bba8c2f438549a7805f31db547da1db.16","title":"Escultura Fórum Picoas","lat":38.731217,"lng":-9.145743,"ornamentId":"ap1"},{"guid":"287c7c77eba7471e8d19f7a31d7e55ed.16","title":"Amusement","lat":38.733274,"lng":-9.144465,"ornamentId":"ap1"},{"guid":"61ee8ff1431d46b88a5680c71eb0f87e.16","title":"A Guitarra Clássica","lat":38.73283,"lng":-9.140589,"ornamentId":"ap1"},{"guid":"82497eca232233e589ec1c404de5ef56.16","title":"Clube PT","lat":38.729112,"lng":-9.145088,"ornamentId":"ap1"},{"guid":"f56f660a6f094c0ea3b7c79bda2edccf.16","title":"Edifício de Engrácio Supardo","lat":38.734279,"lng":-9.14535,"ornamentId":"ap1"},{"guid":"1d8b6e20fa503bc685f18d5a532230db.16","title":"Vila Nova de Estefânia","lat":38.733267,"lng":-9.141088,"ornamentId":"ap1"},{"guid":"be572af97d5c400a9ae71fb089e13be5.16","title":"Edifício António Arroio","lat":38.731201,"lng":-9.142674,"ornamentId":"ap1"},{"guid":"1bf025b975924deaa99f366b0b15086b.16","title":"Igreja Evangélica Maranata","lat":38.729434,"lng":-9.143901,"ornamentId":"ap1"},{"guid":"2dca75ad90714a7a8e58d79e14fc07dd.11","title":"Subway Dome","lat":38.730914,"lng":-9.146236,"ornamentId":"ap1"},{"guid":"746ea800d5c941d5a33170c5b0295ec5.16","title":"Direção Geral de Energia e Geologia","lat":38.743779,"lng":-9.149041,"ornamentId":"ap1"},{"guid":"afcec3d6348a3e81811b2fafd87019fd.16","title":"Ginásio Prisma de Movimento","lat":38.744097,"lng":-9.146956,"ornamentId":"ap1"},{"guid":"320d9ef959c344bfbaf743189afa3bd4.16","title":"Embaixada de Angola","lat":38.744591,"lng":-9.147103,"ornamentId":"ap1"},{"guid":"52f2e66c46a247439dd17dd6e7b0e9eb.16","title":"\"Agricultura\"","lat":38.74385,"lng":-9.147633,"ornamentId":"ap1"},{"guid":"6d5a02c4c8fc4c88878674c6d0b92f8c.16","title":"CTT da Av. da República","lat":38.744052,"lng":-9.147665,"ornamentId":"ap1"},{"guid":"fa36d250878b316695c763faf9a932e0.16","title":"Cockpit Bar","lat":38.744677,"lng":-9.141124,"ornamentId":"ap1"},{"guid":"e74d517955764cf99c1713bc8a755321.16","title":"Grupo Desportivo Operário","lat":38.744102,"lng":-9.144684,"ornamentId":"ap1"},{"guid":"2bd5eff5cf3f43998c8f4a291a88e986.16","title":"O Santo & O Menino","lat":38.744513,"lng":-9.145997,"ornamentId":"ap1"},{"guid":"a9283e9da84a4768bb9c48bc9045fafb.16","title":"União das Misericórdias Portuguesas","lat":38.744572,"lng":-9.145229,"ornamentId":"ap1"},{"guid":"34fd55e988e842978871413b585dd161.16","title":"KW Portugal","lat":38.743857,"lng":-9.144567,"ornamentId":"ap1"},{"guid":"bb9b75d466fd480ba221177af92609c1.16","title":"Junta de Freguesia do Areeiro","lat":38.74513,"lng":-9.140433,"ornamentId":"ap1"},{"guid":"e5cf338db825332b8ab6d06ee619498f.16","title":"Vaca da Garrafeira - CowParade 2006","lat":38.743691,"lng":-9.143493,"ornamentId":"ap1"},{"guid":"849d3ca41d4635d8917a389775954ac4.16","title":"Auri - Lojas com História","lat":38.744296,"lng":-9.139802,"ornamentId":"ap1"},{"guid":"524dd66bda5f3ce28bea498b24cd5e53.16","title":"Igreja Cristã Maranata","lat":38.744089,"lng":-9.145883,"ornamentId":"ap1"},{"guid":"2818e8d28b113cfab58f0abe08393110.16","title":"Nau de Lisboa","lat":38.743907,"lng":-9.14584,"ornamentId":"ap1"},{"guid":"9f3f338812d439fb98eb75998ae72492.16","title":"Salto em equilíbrio","lat":38.744408,"lng":-9.143945,"ornamentId":"ap1"},{"guid":"c5b47e3f113236b68d74428759cf017c.16","title":"Electro Fitness Isabel Silva","lat":38.744234,"lng":-9.141852,"ornamentId":"ap1"},{"guid":"048c41daac3630568b5bd9365409966c.16","title":"STAT Artes Marciais","lat":38.744623,"lng":-9.144959,"ornamentId":"ap1"}]}